{"type": "FeatureCollection", "features": [{"type": "Feature", "geometry": {"type": "Point", "coordinates": [31.8310026, 3.5660773]}, "properties": {"name": "Laropi", "place": "village"}}, {"type": "Feature", "geometry": {"type": "Point", "coordinates": [31.6649919, 3.8732643]}, "properties": {"name": "Kajo Keji", "place": "town"}}, {"type": "Feature", "geometry": {"type": "Point", "coordinates": [32.7477533, 3.7195506]}, "properties": {"name": "Lapak", "place": "village"}}, {"type": "Feature", "geometry": {"type": "Point", "coordinates": [30.9414171, 3.501842]}, "properties": {"name": "Kuluba", "place": "village"}}, {"type": "Feature", "geometry": {"type": "Point", "coordinates": [32.3044273, 2.770239]}, "properties": {"name": "Gulu", "name:en": "Gulu", "name:ko": "\uad74\ub8e8", "name:ru": "\u0413\u0443\u043b\u0443", "name:uk": "\u0413\u0443\u043b\u0443", "name:zh": "\u53e4\u5362", "place": "city", "population": "152276", "source": "https://en.wikipedia.org/wiki/List_of_cities_and_towns_in_Uganda", "wikidata": "Q581379", "wikipedia": "en:Gulu"}}, {"type": "Feature", "geometry": {"type": "Point", "coordinates": [32.1236674, 3.2588262]}, "properties": {"name": "Atiak", "place": "town", "wikidata": "Q755806", "wikipedia": "en:Atiak"}}, {"type": "Feature", "geometry": {"type": "Point", "coordinates": [32.896244, 2.2456918]}, "properties": {"name": "Lira", "name:ru": "\u041b\u0438\u0440\u0430", "name:zh": "\u91cc\u62c9", "place": "city", "population": "99059", "wikidata": "Q1015699", "wikipedia": "en:Lira, Uganda"}}, {"type": "Feature", "geometry": {"type": "Point", "coordinates": [31.0841417, 3.0674836]}, "properties": {"GNS:dsg_code": "PPL", "GNS:dsg_string": "populated place", "GNS:id": "-1726504", "fixme": "no population estimate available, defaulted to village", "name": "Bilefe", "place": "village", "source": "GNS"}}, {"type": "Feature", "geometry": {"type": "Point", "coordinates": [31.498716, 2.4608979]}, "properties": {"name": "Pakwach", "place": "village", "population": "22360", "wikidata": "Q451589", "wikipedia": "en:Pakwach"}}, {"type": "Feature", "geometry": {"type": "Point", "coordinates": [31.0899897, 2.4785503]}, "properties": {"attribution": "\u00abCes donn\u00e9es g\u00e9ographiques proviennent du R\u00e9f\u00e9rentiel G\u00e9ographique Commun (www.rgc.cd).\u00bb", "name": "Nebbi", "name:ru": "\u041d\u0435\u0431\u0438", "place": "town", "source:date": "2007/05/17", "source_ref": "www.rgc.cd", "wikidata": "Q2174978", "wikipedia": "en:Nebbi"}}, {"type": "Feature", "geometry": {"type": "Point", "coordinates": [31.1453527, 2.6520198]}, "properties": {"GNS:dsg_code": "PPL", "GNS:dsg_string": "populated place", "GNS:id": "-1734238", "fixme": "no population estimate available, defaulted to village", "name": "Okollo", "place": "town", "source": "GNS", "wikidata": "Q7082486", "wikipedia": "en:Okollo"}}, {"type": "Feature", "geometry": {"type": "Point", "coordinates": [31.0388143, 2.775482]}, "properties": {"created_by": "Potlatch 0.10f", "name": "Uleppi", "place": "town"}}, {"type": "Feature", "geometry": {"type": "Point", "coordinates": [30.7761596, 3.6866147]}, "properties": {"name": "Morobo", "place": "town"}}, {"type": "Feature", "geometry": {"type": "Point", "coordinates": [30.963141, 2.9465995]}, "properties": {"name": "Olevu", "place": "town"}}, {"type": "Feature", "geometry": {"type": "Point", "coordinates": [30.6673382, 3.684145]}, "properties": {"name": "Lujule", "place": "village", "population": "0", "source:population": "wikipedia"}}, {"type": "Feature", "geometry": {"type": "Point", "coordinates": [30.612335, 3.9441084]}, "properties": {"name": "Morsak", "place": "village"}}, {"type": "Feature", "geometry": {"type": "Point", "coordinates": [33.2086393, 3.2670235]}, "properties": {"name": "Omiya Anyima", "place": "town"}}, {"type": "Feature", "geometry": {"type": "Point", "coordinates": [33.6616325, 3.5106395]}, "properties": {"name": "Pire", "place": "village"}}, {"type": "Feature", "geometry": {"type": "Point", "coordinates": [32.9695827, 3.2319278]}, "properties": {"name": "Oryang IDP Camp", "place": "village"}}, {"type": "Feature", "geometry": {"type": "Point", "coordinates": [32.881839, 3.296481]}, "properties": {"name": "Kitgum", "name:ru": "\u041a\u0438\u0442\u0433\u0443\u043c", "place": "town", "wikidata": "Q544320", "wikipedia": "en:Kitgum, Uganda"}}, {"type": "Feature", "geometry": {"type": "Point", "coordinates": [30.6998868, 3.1933678]}, "properties": {"attribution": "\u00abCes donn\u00e9es g\u00e9ographiques proviennent du R\u00e9f\u00e9rentiel G\u00e9ographique Commun (www.rgc.cd).\u00bb", "is_in:collectivit\u00e9": "Zaki", "is_in:territoire": "Aru", "name": "Apaa", "place": "village", "source": "GPS", "source:date": "2008/06/13", "source_ref": "www.rgc.cd"}}, {"type": "Feature", "geometry": {"type": "Point", "coordinates": [30.5873861, 3.5321997]}, "properties": {"attribution": "\u00abCes donn\u00e9es g\u00e9ographiques proviennent du R\u00e9f\u00e9rentiel G\u00e9ographique Commun (www.rgc.cd).\u00bb", "is_in:collectivit\u00e9": "Kaliko-Omi", "is_in:territoire": "Aru", "name": "Ingbokolomuke", "place": "village", "source": "GPS", "source:date": "2008/06/13", "source_ref": "www.rgc.cd"}}, {"type": "Feature", "geometry": {"type": "Point", "coordinates": [30.9603105, 3.4097256]}, "properties": {"attribution": "\u00abCes donn\u00e9es g\u00e9ographiques proviennent du R\u00e9f\u00e9rentiel G\u00e9ographique Commun (www.rgc.cd).\u00bb", "name": "Koboko", "name:zh": "\u79d1\u535a\u79d1", "place": "town", "source": "GPS", "source:date": "2007/05/15", "source_ref": "www.rgc.cd", "wikidata": "Q2391998"}}, {"type": "Feature", "geometry": {"type": "Point", "coordinates": [30.7943694, 3.5197699]}, "properties": {"attribution": "\u00abCes donn\u00e9es g\u00e9ographiques proviennent du R\u00e9f\u00e9rentiel G\u00e9ographique Commun (www.rgc.cd).\u00bb", "is_in:territoire": "Aru", "name": "Rumu", "place": "village", "source": "GPS", "source:date": "2008/06/13", "source_ref": "www.rgc.cd"}}, {"type": "Feature", "geometry": {"type": "Point", "coordinates": [30.7613064, 3.4011966]}, "properties": {"attribution": "\u00abCes donn\u00e9es g\u00e9ographiques proviennent du R\u00e9f\u00e9rentiel G\u00e9ographique Commun (www.rgc.cd).\u00bb", "is_in:collectivit\u00e9": "Kakwa", "is_in:territoire": "Aru", "name": "Ingbokolo", "place": "village", "source": "GPS", "source:date": "2008/06/13", "source_ref": "www.rgc.cd"}}, {"type": "Feature", "geometry": {"type": "Point", "coordinates": [30.8075829, 3.5992781]}, "properties": {"attribution": "\u00abCes donn\u00e9es g\u00e9ographiques proviennent du R\u00e9f\u00e9rentiel G\u00e9ographique Commun (www.rgc.cd).\u00bb", "name": "Bazi", "place": "town", "source": "GPS", "source:date": "2008/06/13", "source_ref": "www.rgc.cd"}}, {"type": "Feature", "geometry": {"type": "Point", "coordinates": [30.7547039, 3.3201712]}, "properties": {"attribution": "\u00abCes donn\u00e9es g\u00e9ographiques proviennent du R\u00e9f\u00e9rentiel G\u00e9ographique Commun (www.rgc.cd).\u00bb", "is_in:collectivit\u00e9": "Kakwa", "is_in:territoire": "Aru", "name": "Drobukolo", "place": "village", "source": "GPS", "source:date": "2008/06/13", "source_ref": "www.rgc.cd"}}, {"type": "Feature", "geometry": {"type": "Point", "coordinates": [30.7380939, 3.5165826]}, "properties": {"attribution": "\u00abCes donn\u00e9es g\u00e9ographiques proviennent du R\u00e9f\u00e9rentiel G\u00e9ographique Commun (www.rgc.cd).\u00bb", "is_in:territoire": "Aru", "name": "Duku", "place": "village", "source": "GPS", "source:date": "2008/06/13", "source_ref": "www.rgc.cd"}}, {"type": "Feature", "geometry": {"type": "Point", "coordinates": [30.6118413, 3.5437234]}, "properties": {"attribution": "\u00abCes donn\u00e9es g\u00e9ographiques proviennent du R\u00e9f\u00e9rentiel G\u00e9ographique Commun (www.rgc.cd).\u00bb", "is_in:collectivit\u00e9": "Kaliko-Omi", "is_in:territoire": "Aru", "name": "Gbula", "place": "village", "source": "GPS", "source:date": "2008/06/13", "source_ref": "www.rgc.cd"}}, {"type": "Feature", "geometry": {"type": "Point", "coordinates": [30.5306732, 3.5476455]}, "properties": {"attribution": "\u00abCes donn\u00e9es g\u00e9ographiques proviennent du R\u00e9f\u00e9rentiel G\u00e9ographique Commun (www.rgc.cd).\u00bb", "is_in:collectivit\u00e9": "Kaliko-Omi", "is_in:territoire": "Aru", "name": "Didimadi", "place": "village", "source": "GPS", "source:date": "2008/06/13", "source_ref": "www.rgc.cd"}}, {"type": "Feature", "geometry": {"type": "Point", "coordinates": [30.7658008, 3.4601484]}, "properties": {"attribution": "\u00abCes donn\u00e9es g\u00e9ographiques proviennent du R\u00e9f\u00e9rentiel G\u00e9ographique Commun (www.rgc.cd).\u00bb", "is_in:collectivit\u00e9": "Kakwa", "is_in:territoire": "Aru", "name": "Agora", "place": "village", "source": "GPS", "source:date": "2008/06/13", "source_ref": "www.rgc.cd"}}, {"type": "Feature", "geometry": {"type": "Point", "coordinates": [30.7226422, 3.2712876]}, "properties": {"attribution": "\u00abCes donn\u00e9es g\u00e9ographiques proviennent du R\u00e9f\u00e9rentiel G\u00e9ographique Commun (www.rgc.cd).\u00bb", "is_in:collectivit\u00e9": "Zaki", "is_in:territoire": "Aru", "name": "Edipi", "place": "village", "source": "GPS", "source:date": "2008/06/13", "source_ref": "www.rgc.cd"}}, {"type": "Feature", "geometry": {"type": "Point", "coordinates": [30.7909174, 3.3743154]}, "properties": {"alt_name": "Komoro", "attribution": "\u00abCes donn\u00e9es g\u00e9ographiques proviennent du R\u00e9f\u00e9rentiel G\u00e9ographique Commun (www.rgc.cd).\u00bb", "is_in:collectivit\u00e9": "Kakwa", "is_in:territoire": "Aru", "name": "Kumuru", "place": "village", "source": "GPS", "source:date": "2007/05/15", "source_ref": "www.rgc.cd"}}, {"type": "Feature", "geometry": {"type": "Point", "coordinates": [30.7784955, 3.4934188]}, "properties": {"attribution": "\u00abCes donn\u00e9es g\u00e9ographiques proviennent du R\u00e9f\u00e9rentiel G\u00e9ographique Commun (www.rgc.cd).\u00bb", "is_in:territoire": "Aru", "name": "Leiko", "place": "village", "source": "GPS", "source:date": "2008/06/13", "source_ref": "www.rgc.cd"}}, {"type": "Feature", "geometry": {"type": "Point", "coordinates": [30.7741036, 3.3682888]}, "properties": {"attribution": "\u00abCes donn\u00e9es g\u00e9ographiques proviennent du R\u00e9f\u00e9rentiel G\u00e9ographique Commun (www.rgc.cd).\u00bb", "is_in:collectivit\u00e9": "Kakwa", "is_in:territoire": "Aru", "name": "Kumuru", "place": "village", "source": "GPS", "source:date": "2008/06/13", "source_ref": "www.rgc.cd"}}, {"type": "Feature", "geometry": {"type": "Point", "coordinates": [30.487943, 3.5397163]}, "properties": {"attribution": "\u00abCes donn\u00e9es g\u00e9ographiques proviennent du R\u00e9f\u00e9rentiel G\u00e9ographique Commun (www.rgc.cd).\u00bb", "is_in:collectivit\u00e9": "Kaliko-Omi", "is_in:territoire": "Aru", "name": "Orimba", "place": "village", "source": "GPS", "source:date": "2008/06/13", "source_ref": "www.rgc.cd"}}, {"type": "Feature", "geometry": {"type": "Point", "coordinates": [30.7909831, 3.5082352]}, "properties": {"attribution": "\u00abCes donn\u00e9es g\u00e9ographiques proviennent du R\u00e9f\u00e9rentiel G\u00e9ographique Commun (www.rgc.cd).\u00bb", "is_in:territoire": "Aru", "name": "Kengezi", "place": "village", "source": "GPS", "source:date": "2007/05/15", "source_ref": "www.rgc.cd"}}, {"type": "Feature", "geometry": {"type": "Point", "coordinates": [30.8140747, 3.5864689]}, "properties": {"attribution": "\u00abCes donn\u00e9es g\u00e9ographiques proviennent du R\u00e9f\u00e9rentiel G\u00e9ographique Commun (www.rgc.cd).\u00bb", "is_in:territoire": "Aru", "name": "Kengezi Base", "place": "village", "source": "GPS", "source:date": "2008/06/13", "source_ref": "www.rgc.cd"}}, {"type": "Feature", "geometry": {"type": "Point", "coordinates": [30.8424115, 2.2458959]}, "properties": {"attribution": "\u00abCes donn\u00e9es g\u00e9ographiques proviennent du R\u00e9f\u00e9rentiel G\u00e9ographique Commun (www.rgc.cd).\u00bb", "name": "Aissi", "place": "village", "source": "GPS", "source:date": "2008/04/04", "source_ref": "www.rgc.cd"}}, {"type": "Feature", "geometry": {"type": "Point", "coordinates": [30.8205832, 2.8494831]}, "properties": {"attribution": "\u00abCes donn\u00e9es g\u00e9ographiques proviennent du R\u00e9f\u00e9rentiel G\u00e9ographique Commun (www.rgc.cd).\u00bb", "is_in:collectivit\u00e9": "Lu", "is_in:territoire": "Aru", "name": "Ngele", "place": "village", "source": "GPS", "source:date": "2007/05/17", "source_ref": "www.rgc.cd"}}, {"type": "Feature", "geometry": {"type": "Point", "coordinates": [30.8576387, 2.3628245]}, "properties": {"alt_name": "Kabasa", "attribution": "\u00abCes donn\u00e9es g\u00e9ographiques proviennent du R\u00e9f\u00e9rentiel G\u00e9ographique Commun (www.rgc.cd).\u00bb", "is_in:collectivit\u00e9": "War-Palara", "is_in:groupement": "Kabasa", "is_in:territoire": "Mahagi", "name": "Awasi", "place": "village", "source": "GPS", "source:date": "2009/02/12", "source_ref": "www.rgc.cd"}}, {"type": "Feature", "geometry": {"type": "Point", "coordinates": [30.7708604, 3.1183056]}, "properties": {"attribution": "\u00abCes donn\u00e9es g\u00e9ographiques proviennent du R\u00e9f\u00e9rentiel G\u00e9ographique Commun (www.rgc.cd).\u00bb", "is_in:collectivit\u00e9": "Zaki", "is_in:territoire": "Aru", "name": "Nderi", "place": "village", "source": "GPS", "source:date": "2008/06/13", "source_ref": "www.rgc.cd"}}, {"type": "Feature", "geometry": {"type": "Point", "coordinates": [30.7459003, 2.5913115]}, "properties": {"attribution": "\u00abCes donn\u00e9es g\u00e9ographiques proviennent du R\u00e9f\u00e9rentiel G\u00e9ographique Commun (www.rgc.cd).\u00bb", "is_in:collectivit\u00e9": "Balinga-Lindja", "is_in:territoire": "Mahagi", "name": "Ndama", "place": "village", "source": "GPS", "source:date": "2007/05/17", "source_ref": "www.rgc.cd"}}, {"type": "Feature", "geometry": {"type": "Point", "coordinates": [30.7452515, 2.8603688]}, "properties": {"attribution": "\u00abCes donn\u00e9es g\u00e9ographiques proviennent du R\u00e9f\u00e9rentiel G\u00e9ographique Commun (www.rgc.cd).\u00bb", "is_in:collectivit\u00e9": "Lu", "is_in:territoire": "Aru", "name": "Oronzi", "place": "village", "source": "GPS", "source:date": "2008/06/13", "source_ref": "www.rgc.cd"}}, {"type": "Feature", "geometry": {"type": "Point", "coordinates": [30.8477222, 2.2763889]}, "properties": {"attribution": "\u00abCes donn\u00e9es g\u00e9ographiques proviennent du R\u00e9f\u00e9rentiel G\u00e9ographique Commun (www.rgc.cd).\u00bb", "is_in:collectivit\u00e9": "Pandoro", "is_in:groupement": "Akapa", "is_in:territoire": "Mahagi", "name": "Gwok Nyeri", "place": "village", "source": "GPS", "source:date": "2008/04/04", "source_ref": "www.rgc.cd"}}, {"type": "Feature", "geometry": {"type": "Point", "coordinates": [30.4842301, 2.2709717]}, "properties": {"alt_name": "Bulo", "attribution": "\u00abCes donn\u00e9es g\u00e9ographiques proviennent du R\u00e9f\u00e9rentiel G\u00e9ographique Commun (www.rgc.cd).\u00bb", "is_in:collectivit\u00e9": "Walendu Watsi", "name": "Bolo", "place": "village", "source": "GPS", "source:date": "2008/04/24", "source_ref": "www.rgc.cd"}}, {"type": "Feature", "geometry": {"type": "Point", "coordinates": [30.7291, 2.831867]}, "properties": {"attribution": "\u00abCes donn\u00e9es g\u00e9ographiques proviennent du R\u00e9f\u00e9rentiel G\u00e9ographique Commun (www.rgc.cd).\u00bb", "is_in:collectivit\u00e9": "Lu", "is_in:territoire": "Aru", "name": "Montawa", "place": "village", "source": "GPS", "source:date": "2007/05/17", "source_ref": "www.rgc.cd"}}, {"type": "Feature", "geometry": {"type": "Point", "coordinates": [30.796389, 2.2755561]}, "properties": {"alt_name": "Loga", "attribution": "\u00abCes donn\u00e9es g\u00e9ographiques proviennent du R\u00e9f\u00e9rentiel G\u00e9ographique Commun (www.rgc.cd).\u00bb", "is_in:collectivit\u00e9": "Pandoro", "is_in:territoire": "Mahagi", "name": "Luga", "place": "village", "source": "GPS", "source:date": "2007/05/17", "source_ref": "www.rgc.cd"}}, {"type": "Feature", "geometry": {"type": "Point", "coordinates": [30.6139022, 2.2516687]}, "properties": {"attribution": "\u00abCes donn\u00e9es g\u00e9ographiques proviennent du R\u00e9f\u00e9rentiel G\u00e9ographique Commun (www.rgc.cd).\u00bb", "is_in:collectivit\u00e9": "Walendu Watsi", "is_in:territoire": "Mahagi", "name": "Zanzibar", "place": "village", "source": "GPS", "source:date": "2008/04/24", "source_ref": "www.rgc.cd"}}, {"type": "Feature", "geometry": {"type": "Point", "coordinates": [30.6056048, 2.9684708]}, "properties": {"attribution": "\u00abCes donn\u00e9es g\u00e9ographiques proviennent du R\u00e9f\u00e9rentiel G\u00e9ographique Commun (www.rgc.cd).\u00bb", "is_in:collectivit\u00e9": "Lu", "is_in:territoire": "Aru", "name": "Adunga", "place": "village", "source": "GPS", "source:date": "2008/06/13", "source_ref": "www.rgc.cd"}}, {"type": "Feature", "geometry": {"type": "Point", "coordinates": [30.53204, 2.6515453]}, "properties": {"attribution": "\u00abCes donn\u00e9es g\u00e9ographiques proviennent du R\u00e9f\u00e9rentiel G\u00e9ographique Commun (www.rgc.cd).\u00bb", "is_in:collectivit\u00e9": "Alur-Djuganda", "is_in:groupement": "Koch-Lala", "is_in:territoire": "Mahagi", "name": "Mbaku", "place": "village", "source": "GPS", "source:date": "2008/11/25", "source_ref": "www.rgc.cd"}}, {"type": "Feature", "geometry": {"type": "Point", "coordinates": [30.4425429, 2.2953048]}, "properties": {"attribution": "\u00abCes donn\u00e9es g\u00e9ographiques proviennent du R\u00e9f\u00e9rentiel G\u00e9ographique Commun (www.rgc.cd).\u00bb", "is_in:collectivit\u00e9": "Walendu Watsi", "name": "Kadilo", "place": "village", "source": "GPS", "source:date": "2008/04/24", "source_ref": "www.rgc.cd"}}, {"type": "Feature", "geometry": {"type": "Point", "coordinates": [30.6747435, 3.0999303]}, "properties": {"alt_name": "Akei", "attribution": "\u00abCes donn\u00e9es g\u00e9ographiques proviennent du R\u00e9f\u00e9rentiel G\u00e9ographique Commun (www.rgc.cd).\u00bb", "is_in:collectivit\u00e9": "Zaki", "is_in:territoire": "Aru", "name": "Tshakay", "note": "named Akei in GeoNames: https://www.geonames.org/220451/akei.html", "place": "village", "source": "GPS", "source:date": "2008/06/13", "source_ref": "www.rgc.cd"}}, {"type": "Feature", "geometry": {"type": "Point", "coordinates": [30.5273637, 2.6270899]}, "properties": {"attribution": "\u00abCes donn\u00e9es g\u00e9ographiques proviennent du R\u00e9f\u00e9rentiel G\u00e9ographique Commun (www.rgc.cd).\u00bb", "is_in:collectivit\u00e9": "Alur-Djuganda", "is_in:groupement": "Koch-Lala", "is_in:territoire": "Mahagi", "name": "Lala II", "place": "village", "source": "GPS", "source:date": "2008/11/25", "source_ref": "www.rgc.cd"}}, {"type": "Feature", "geometry": {"type": "Point", "coordinates": [31.0711793, 2.2812518]}, "properties": {"attribution": "\u00abCes donn\u00e9es g\u00e9ographiques proviennent du R\u00e9f\u00e9rentiel G\u00e9ographique Commun (www.rgc.cd).\u00bb", "name": "Paiching", "place": "village", "source": "GPS", "source:date": "2007/05/17", "source_ref": "www.rgc.cd"}}, {"type": "Feature", "geometry": {"type": "Point", "coordinates": [30.9490583, 2.2624636]}, "properties": {"attribution": "\u00abCes donn\u00e9es g\u00e9ographiques proviennent du R\u00e9f\u00e9rentiel G\u00e9ographique Commun (www.rgc.cd).\u00bb", "is_in:collectivit\u00e9": "War-Palara", "is_in:territoire": "Mahagi", "name": "Darlas", "place": "village", "source:date": "2007/05/17", "source_ref": "www.rgc.cd"}}, {"type": "Feature", "geometry": {"type": "Point", "coordinates": [30.7015391, 2.817803]}, "properties": {"attribution": "\u00abCes donn\u00e9es g\u00e9ographiques proviennent du R\u00e9f\u00e9rentiel G\u00e9ographique Commun (www.rgc.cd).\u00bb", "is_in:collectivit\u00e9": "Lu", "is_in:territoire": "Aru", "name": "Yuku", "place": "village", "source": "GPS", "source:date": "2007/05/17", "source_ref": "www.rgc.cd"}}, {"type": "Feature", "geometry": {"type": "Point", "coordinates": [30.7944825, 2.3211307]}, "properties": {"attribution": "\u00abCes donn\u00e9es g\u00e9ographiques proviennent du R\u00e9f\u00e9rentiel G\u00e9ographique Commun (www.rgc.cd).\u00bb", "is_in:collectivit\u00e9": "Pandoro", "is_in:groupement": "Akapa", "is_in:territoire": "Mahagi", "name": "Panitu-Pataba", "place": "village", "source": "GPS", "source:date": "2008/04/04", "source_ref": "www.rgc.cd"}}, {"type": "Feature", "geometry": {"type": "Point", "coordinates": [30.4925623, 2.3077705]}, "properties": {"attribution": "\u00abCes donn\u00e9es g\u00e9ographiques proviennent du R\u00e9f\u00e9rentiel G\u00e9ographique Commun (www.rgc.cd).\u00bb", "is_in:collectivit\u00e9": "Walendu Watsi", "name": "Nduvio", "place": "village", "source": "GPS", "source:date": "2008/04/24", "source_ref": "www.rgc.cd"}}, {"type": "Feature", "geometry": {"type": "Point", "coordinates": [30.8716667, 2.3071111]}, "properties": {"alt_name": "Djupacan", "attribution": "\u00abCes donn\u00e9es g\u00e9ographiques proviennent du R\u00e9f\u00e9rentiel G\u00e9ographique Commun (www.rgc.cd).\u00bb", "is_in:collectivit\u00e9": "Pandoro", "is_in:groupement": "Akapa", "is_in:territoire": "Mahagi", "name": "Jupacinvor", "place": "village", "source": "GPS", "source:date": "2008/04/04", "source_ref": "www.rgc.cd"}}, {"type": "Feature", "geometry": {"type": "Point", "coordinates": [30.480278, 3.0155561]}, "properties": {"attribution": "\u00abCes donn\u00e9es g\u00e9ographiques proviennent du R\u00e9f\u00e9rentiel G\u00e9ographique Commun (www.rgc.cd).\u00bb", "is_in:collectivit\u00e9": "Zaki", "is_in:territoire": "Aru", "name": "Adja", "place": "village", "source": "GPS", "source:date": "2007/05/17", "source_ref": "www.rgc.cd"}}, {"type": "Feature", "geometry": {"type": "Point", "coordinates": [30.5844167, 2.6021111]}, "properties": {"attribution": "\u00abCes donn\u00e9es g\u00e9ographiques proviennent du R\u00e9f\u00e9rentiel G\u00e9ographique Commun (www.rgc.cd).\u00bb", "is_in:collectivit\u00e9": "Alur-Djuganda", "is_in:groupement": "Koch-Lala", "is_in:territoire": "Mahagi", "name": "Abey I", "place": "village", "source": "GPS", "source:date": "2008/11/25", "source_ref": "www.rgc.cd"}}, {"type": "Feature", "geometry": {"type": "Point", "coordinates": [30.5370556, 2.3333333]}, "properties": {"attribution": "\u00abCes donn\u00e9es g\u00e9ographiques proviennent du R\u00e9f\u00e9rentiel G\u00e9ographique Commun (www.rgc.cd).\u00bb", "is_in:collectivit\u00e9": "Walendu Watsi", "is_in:territoire": "Mahagi", "name": "Tedhi", "name:en": "Tedhi Village inside Forest", "place": "village", "source": "GPS", "source:date": "2008/04/24", "source_ref": "www.rgc.cd"}}, {"type": "Feature", "geometry": {"type": "Point", "coordinates": [30.6278791, 3.0055118]}, "properties": {"attribution": "\u00abCes donn\u00e9es g\u00e9ographiques proviennent du R\u00e9f\u00e9rentiel G\u00e9ographique Commun (www.rgc.cd).\u00bb", "is_in:collectivit\u00e9": "Zaki", "is_in:territoire": "Aru", "name": "Atsinya", "place": "village", "source": "GPS", "source:date": "2008/06/13", "source_ref": "www.rgc.cd"}}, {"type": "Feature", "geometry": {"type": "Point", "coordinates": [30.9292387, 2.2937915]}, "properties": {"attribution": "\u00abCes donn\u00e9es g\u00e9ographiques proviennent du R\u00e9f\u00e9rentiel G\u00e9ographique Commun (www.rgc.cd).\u00bb", "is_in:collectivit\u00e9": "War-Palara", "is_in:territoire": "Mahagi", "name": "Kodi Koka", "place": "village", "source": "GPS", "source:date": "2007/05/17", "source_ref": "www.rgc.cd"}}, {"type": "Feature", "geometry": {"type": "Point", "coordinates": [30.4462515, 2.9016107]}, "properties": {"attribution": "\u00abCes donn\u00e9es g\u00e9ographiques proviennent du R\u00e9f\u00e9rentiel G\u00e9ographique Commun (www.rgc.cd).\u00bb", "is_in:collectivit\u00e9": "Aluru", "is_in:territoire": "Aru", "name": "Adranga", "name:ru": "\u0410\u0434\u0440\u0430\u043d\u0433\u0430", "place": "village", "source": "GPS", "source:date": "2008/06/13", "source_ref": "www.rgc.cd"}}, {"type": "Feature", "geometry": {"type": "Point", "coordinates": [30.750592, 2.8003391]}, "properties": {"attribution": "\u00abCes donn\u00e9es g\u00e9ographiques proviennent du R\u00e9f\u00e9rentiel G\u00e9ographique Commun (www.rgc.cd).\u00bb", "is_in:collectivit\u00e9": "Lu", "is_in:territoire": "Aru", "name": "Ongoyi", "place": "village", "source": "GPS", "source:date": "2007/05/17", "source_ref": "www.rgc.cd"}}, {"type": "Feature", "geometry": {"type": "Point", "coordinates": [31.0296457, 2.3874268]}, "properties": {"GNS:dsg_code": "PPL", "GNS:dsg_string": "populated place", "GNS:id": "-1727909", "attribution": "\u00abCes donn\u00e9es g\u00e9ographiques proviennent du R\u00e9f\u00e9rentiel G\u00e9ographique Commun (www.rgc.cd).\u00bb", "fixme": "no population estimate available, defaulted to village", "name": "Goli", "place": "village", "source": "GNS", "source:date": "2007/05/17", "source_ref": "www.rgc.cd", "wikidata": "Q5580688"}}, {"type": "Feature", "geometry": {"type": "Point", "coordinates": [30.5435736, 2.6021968]}, "properties": {"attribution": "\u00abCes donn\u00e9es g\u00e9ographiques proviennent du R\u00e9f\u00e9rentiel G\u00e9ographique Commun (www.rgc.cd).\u00bb", "is_in:collectivit\u00e9": "Alur-Djuganda", "is_in:groupement": "Koch-Lala", "is_in:territoire": "Mahagi", "name": "Abey Atha", "place": "village", "source": "GPS", "source:date": "2008/11/25", "source_ref": "www.rgc.cd"}}, {"type": "Feature", "geometry": {"type": "Point", "coordinates": [30.4781969, 2.7199615]}, "properties": {"attribution": "\u00abCes donn\u00e9es g\u00e9ographiques proviennent du R\u00e9f\u00e9rentiel G\u00e9ographique Commun (www.rgc.cd).\u00bb", "is_in:collectivit\u00e9": "Alur-Djuganda", "is_in:groupement": "Aupa", "is_in:territoire": "Mahagi", "name": "Angbara", "place": "village", "source": "GPS", "source:date": "2008/07/20", "source_ref": "www.rgc.cd"}}, {"type": "Feature", "geometry": {"type": "Point", "coordinates": [30.771283, 2.8430501]}, "properties": {"alt_name": "Gombiri", "attribution": "\u00abCes donn\u00e9es g\u00e9ographiques proviennent du R\u00e9f\u00e9rentiel G\u00e9ographique Commun (www.rgc.cd).\u00bb", "is_in:collectivit\u00e9": "Lu", "is_in:territoire": "Aru", "name": "Gumbiri", "place": "village", "source": "GPS", "source:date": "2008/06/13", "source_ref": "www.rgc.cd"}}, {"type": "Feature", "geometry": {"type": "Point", "coordinates": [30.7277053, 2.2897413]}, "properties": {"alt_name": "Djupacida-Libi", "attribution": "\u00abCes donn\u00e9es g\u00e9ographiques proviennent du R\u00e9f\u00e9rentiel G\u00e9ographique Commun (www.rgc.cd).\u00bb", "is_in:collectivit\u00e9": "Pandoro", "is_in:groupement": "Ngote", "is_in:territoire": "Mahagi", "name": "Libi", "place": "village", "source": "GPS", "source:date": "2007/06/15", "source_ref": "www.rgc.cd"}}, {"type": "Feature", "geometry": {"type": "Point", "coordinates": [30.8844722, 2.2842778]}, "properties": {"attribution": "\u00abCes donn\u00e9es g\u00e9ographiques proviennent du R\u00e9f\u00e9rentiel G\u00e9ographique Commun (www.rgc.cd).\u00bb", "is_in:collectivit\u00e9": "Pandoro", "is_in:groupement": "Akapa", "is_in:territoire": "Mahagi", "name": "Djupalaka", "place": "village", "source": "GPS", "source:date": "2008/04/04", "source_ref": "www.rgc.cd"}}, {"type": "Feature", "geometry": {"type": "Point", "coordinates": [30.8412169, 2.8116001]}, "properties": {"attribution": "\u00abCes donn\u00e9es g\u00e9ographiques proviennent du R\u00e9f\u00e9rentiel G\u00e9ographique Commun (www.rgc.cd).\u00bb", "is_in:collectivit\u00e9": "Otso", "is_in:territoire": "Aru", "name": "Azanga", "place": "village", "source": "GPS", "source:date": "2007/05/17", "source_ref": "www.rgc.cd"}}, {"type": "Feature", "geometry": {"type": "Point", "coordinates": [30.9853389, 2.4166898]}, "properties": {"GNS:dsg_code": "PPL", "GNS:dsg_string": "populated place", "GNS:id": "-1734536", "attribution": "\u00abCes donn\u00e9es g\u00e9ographiques proviennent du R\u00e9f\u00e9rentiel G\u00e9ographique Commun (www.rgc.cd).\u00bb", "name": "Paidha", "place": "town", "wikidata": "Q7124680", "wikipedia": "en:Paidha"}}, {"type": "Feature", "geometry": {"type": "Point", "coordinates": [30.5859574, 2.4409434]}, "properties": {"attribution": "\u00abCes donn\u00e9es g\u00e9ographiques proviennent du R\u00e9f\u00e9rentiel G\u00e9ographique Commun (www.rgc.cd).\u00bb", "is_in:collectivit\u00e9": "Pandoro", "is_in:territoire": "Mahagi", "name": "Katanga", "place": "village", "source": "GPS", "source:date": "2009/08/31", "source_ref": "www.rgc.cd"}}, {"type": "Feature", "geometry": {"type": "Point", "coordinates": [30.4958889, 2.6616111]}, "properties": {"attribution": "\u00abCes donn\u00e9es g\u00e9ographiques proviennent du R\u00e9f\u00e9rentiel G\u00e9ographique Commun (www.rgc.cd).\u00bb", "is_in:collectivit\u00e9": "Alur-Djuganda", "is_in:groupement": "Aupa", "is_in:territoire": "Mahagi", "name": "Omba Amono", "place": "village", "source": "GPS", "source:date": "2008/07/20", "source_ref": "www.rgc.cd"}}, {"type": "Feature", "geometry": {"type": "Point", "coordinates": [30.7623172, 2.8263331]}, "properties": {"attribution": "\u00abCes donn\u00e9es g\u00e9ographiques proviennent du R\u00e9f\u00e9rentiel G\u00e9ographique Commun (www.rgc.cd).\u00bb", "is_in:collectivit\u00e9": "Lu", "is_in:territoire": "Aru", "name": "Burenga", "place": "village", "source": "GPS", "source:date": "2007/05/17", "source_ref": "www.rgc.cd"}}, {"type": "Feature", "geometry": {"type": "Point", "coordinates": [30.7899416, 2.2513311]}, "properties": {"alt_name": "Si", "attribution": "\u00abCes donn\u00e9es g\u00e9ographiques proviennent du R\u00e9f\u00e9rentiel G\u00e9ographique Commun (www.rgc.cd).\u00bb", "is_in:collectivit\u00e9": "Pandoro", "is_in:territoire": "Mahagi", "name": "Jupujuro-sii", "place": "village", "source": "GPS", "source:date": "2009/12/21", "source_ref": "www.rgc.cd"}}, {"type": "Feature", "geometry": {"type": "Point", "coordinates": [30.7084438, 2.3320503]}, "properties": {"attribution": "\u00abCes donn\u00e9es g\u00e9ographiques proviennent du R\u00e9f\u00e9rentiel G\u00e9ographique Commun (www.rgc.cd).\u00bb", "is_in:collectivit\u00e9": "Pandoro", "is_in:territoire": "Mahagi", "name": "Rona", "place": "village", "source": "GPS", "source:date": "2008/04/24", "source_ref": "www.rgc.cd"}}, {"type": "Feature", "geometry": {"type": "Point", "coordinates": [30.5842484, 2.6046039]}, "properties": {"attribution": "\u00abCes donn\u00e9es g\u00e9ographiques proviennent du R\u00e9f\u00e9rentiel G\u00e9ographique Commun (www.rgc.cd).\u00bb", "is_in:collectivit\u00e9": "Alur-Djuganda", "is_in:groupement": "Koch-Lala", "is_in:territoire": "Mahagi", "name": "Wiyowiyo", "place": "village", "source": "GPS", "source:date": "2008/11/25", "source_ref": "www.rgc.cd"}}, {"type": "Feature", "geometry": {"type": "Point", "coordinates": [30.571132, 2.306549]}, "properties": {"attribution": "\u00abCes donn\u00e9es g\u00e9ographiques proviennent du R\u00e9f\u00e9rentiel G\u00e9ographique Commun (www.rgc.cd).\u00bb", "is_in:collectivit\u00e9": "Walendu Watsi", "is_in:territoire": "Mahagi", "name": "Kambala II", "place": "village", "source": "GPS", "source:date": "2008/04/24", "source_ref": "www.rgc.cd"}}, {"type": "Feature", "geometry": {"type": "Point", "coordinates": [30.5876623, 2.9538382]}, "properties": {"attribution": "\u00abCes donn\u00e9es g\u00e9ographiques proviennent du R\u00e9f\u00e9rentiel G\u00e9ographique Commun (www.rgc.cd).\u00bb", "is_in:collectivit\u00e9": "Lu", "is_in:territoire": "Aru", "name": "Epau", "place": "village", "source": "GPS", "source:date": "2008/06/13", "source_ref": "www.rgc.cd"}}, {"type": "Feature", "geometry": {"type": "Point", "coordinates": [30.77755, 2.2770563]}, "properties": {"attribution": "\u00abCes donn\u00e9es g\u00e9ographiques proviennent du R\u00e9f\u00e9rentiel G\u00e9ographique Commun (www.rgc.cd).\u00bb", "is_in:collectivit\u00e9": "Pandoro", "is_in:groupement": "Ngote", "is_in:territoire": "Mahagi", "name": "Djupalamawi", "place": "village", "source": "GPS", "source:date": "2007/06/15", "source_ref": "www.rgc.cd"}}, {"type": "Feature", "geometry": {"type": "Point", "coordinates": [30.794333, 2.8469331]}, "properties": {"attribution": "\u00abCes donn\u00e9es g\u00e9ographiques proviennent du R\u00e9f\u00e9rentiel G\u00e9ographique Commun (www.rgc.cd).\u00bb", "is_in:collectivit\u00e9": "Lu", "is_in:territoire": "Aru", "name": "Amboto", "place": "village", "source": "GPS", "source:date": "2007/05/17", "source_ref": "www.rgc.cd"}}, {"type": "Feature", "geometry": {"type": "Point", "coordinates": [30.7240997, 2.6884181]}, "properties": {"attribution": "\u00abCes donn\u00e9es g\u00e9ographiques proviennent du R\u00e9f\u00e9rentiel G\u00e9ographique Commun (www.rgc.cd).\u00bb", "is_in:collectivit\u00e9": "Balinga-Lindja", "is_in:territoire": "Mahagi", "name": "Kusu", "place": "village", "source": "GPS", "source:date": "2007/05/17", "source_ref": "www.rgc.cd"}}, {"type": "Feature", "geometry": {"type": "Point", "coordinates": [30.4852778, 2.6755]}, "properties": {"attribution": "\u00abCes donn\u00e9es g\u00e9ographiques proviennent du R\u00e9f\u00e9rentiel G\u00e9ographique Commun (www.rgc.cd).\u00bb", "is_in:collectivit\u00e9": "Alur-Djuganda", "is_in:groupement": "Aupa", "is_in:territoire": "Mahagi", "name": "Vura", "place": "village", "source": "GPS", "source:date": "2008/07/20", "source_ref": "www.rgc.cd"}}, {"type": "Feature", "geometry": {"type": "Point", "coordinates": [30.801389, 2.951919]}, "properties": {"attribution": "\u00abCes donn\u00e9es g\u00e9ographiques proviennent du R\u00e9f\u00e9rentiel G\u00e9ographique Commun (www.rgc.cd).\u00bb", "is_in:collectivit\u00e9": "Nio-Kamule", "is_in:territoire": "Aru", "name": "Yaba", "place": "village", "source": "GPS", "source:date": "2007/05/17", "source_ref": "www.rgc.cd"}}, {"type": "Feature", "geometry": {"type": "Point", "coordinates": [30.8523056, 2.2838611]}, "properties": {"attribution": "\u00abCes donn\u00e9es g\u00e9ographiques proviennent du R\u00e9f\u00e9rentiel G\u00e9ographique Commun (www.rgc.cd).\u00bb", "is_in:collectivit\u00e9": "Pandoro", "is_in:groupement": "Akapa", "is_in:territoire": "Mahagi", "name": "Djupanyondo", "place": "village", "source": "GPS", "source:date": "2008/04/04", "source_ref": "www.rgc.cd"}}, {"type": "Feature", "geometry": {"type": "Point", "coordinates": [30.68545, 2.9352861]}, "properties": {"attribution": "\u00abCes donn\u00e9es g\u00e9ographiques proviennent du R\u00e9f\u00e9rentiel G\u00e9ographique Commun (www.rgc.cd).\u00bb", "is_in:collectivit\u00e9": "Nio-Kamule", "is_in:groupement": "Ofika", "is_in:territoire": "Aru", "name": "Abiridio", "place": "village", "source": "GPS", "source:date": "2007/05/17", "source_ref": "www.rgc.cd"}}, {"type": "Feature", "geometry": {"type": "Point", "coordinates": [31.1986109, 2.254444]}, "properties": {"attribution": "\u00abCes donn\u00e9es g\u00e9ographiques proviennent du R\u00e9f\u00e9rentiel G\u00e9ographique Commun (www.rgc.cd).\u00bb", "name": "Wilango Cubu", "place": "village", "source": "GPS", "source:date": "2007/05/17", "source_ref": "www.rgc.cd"}}, {"type": "Feature", "geometry": {"type": "Point", "coordinates": [30.7718479, 3.072951]}, "properties": {"alt_name": "Ombayi", "attribution": "\u00abCes donn\u00e9es g\u00e9ographiques proviennent du R\u00e9f\u00e9rentiel G\u00e9ographique Commun (www.rgc.cd).\u00bb", "is_in:collectivit\u00e9": "Zaki", "is_in:territoire": "Aru", "name": "Ombai", "place": "village", "source": "GPS", "source:date": "2008/06/13", "source_ref": "www.rgc.cd"}}, {"type": "Feature", "geometry": {"type": "Point", "coordinates": [30.5348388, 2.7418647]}, "properties": {"attribution": "\u00abCes donn\u00e9es g\u00e9ographiques proviennent du R\u00e9f\u00e9rentiel G\u00e9ographique Commun (www.rgc.cd).\u00bb", "is_in:collectivit\u00e9": "Aluru", "is_in:territoire": "Aru", "name": "Kerekere", "place": "village", "source": "GPS", "source:date": "2007/05/17", "source_ref": "www.rgc.cd"}}, {"type": "Feature", "geometry": {"type": "Point", "coordinates": [30.9917354, 2.3003475]}, "properties": {"admin_level": "6", "alt_name": "Mahaji", "attribution": "\u00abCes donn\u00e9es g\u00e9ographiques proviennent du R\u00e9f\u00e9rentiel G\u00e9ographique Commun (www.rgc.cd).\u00bb", "capital": "6", "name": "Mahagi", "place": "town", "source:date": "2007/05/17", "source_ref": "www.rgc.cd"}}, {"type": "Feature", "geometry": {"type": "Point", "coordinates": [30.504714, 2.7102464]}, "properties": {"attribution": "\u00abCes donn\u00e9es g\u00e9ographiques proviennent du R\u00e9f\u00e9rentiel G\u00e9ographique Commun (www.rgc.cd).\u00bb", "is_in:collectivit\u00e9": "Alur-Djuganda", "is_in:groupement": "Aupa", "is_in:territoire": "Mahagi", "name": "Aliso", "place": "village", "source": "GPS", "source:date": "2008/07/20", "source_ref": "www.rgc.cd"}}, {"type": "Feature", "geometry": {"type": "Point", "coordinates": [30.5094722, 2.9203056]}, "properties": {"alt_name": "Rungu I & II", "attribution": "\u00abCes donn\u00e9es g\u00e9ographiques proviennent du R\u00e9f\u00e9rentiel G\u00e9ographique Commun (www.rgc.cd).\u00bb", "is_in:collectivit\u00e9": "Ndo-Okebo", "is_in:groupement": "Rungu", "is_in:territoire": "Aru", "name": "Wamba", "place": "village", "source": "GPS", "source:date": "2008/05/21", "source_ref": "www.rgc.cd"}}, {"type": "Feature", "geometry": {"type": "Point", "coordinates": [30.8328889, 2.2866111]}, "properties": {"attribution": "\u00abCes donn\u00e9es g\u00e9ographiques proviennent du R\u00e9f\u00e9rentiel G\u00e9ographique Commun (www.rgc.cd).\u00bb", "is_in:collectivit\u00e9": "Pandoro", "is_in:groupement": "Akapa", "is_in:territoire": "Mahagi", "name": "Djupakecha", "place": "village", "source": "GPS", "source:date": "2008/04/04", "source_ref": "www.rgc.cd"}}, {"type": "Feature", "geometry": {"type": "Point", "coordinates": [30.7572329, 2.815067]}, "properties": {"attribution": "\u00abCes donn\u00e9es g\u00e9ographiques proviennent du R\u00e9f\u00e9rentiel G\u00e9ographique Commun (www.rgc.cd).\u00bb", "is_in:collectivit\u00e9": "Lu", "is_in:territoire": "Aru", "name": "Nyacha", "place": "village", "source": "GPS", "source:date": "2007/05/17", "source_ref": "www.rgc.cd"}}, {"type": "Feature", "geometry": {"type": "Point", "coordinates": [30.6539819, 2.7232179]}, "properties": {"attribution": "\u00abCes donn\u00e9es g\u00e9ographiques proviennent du R\u00e9f\u00e9rentiel G\u00e9ographique Commun (www.rgc.cd).\u00bb", "is_in:collectivit\u00e9": "Lu", "is_in:territoire": "Aru", "name": "Ameri", "place": "village", "source": "GPS", "source:date": "2007/05/17", "source_ref": "www.rgc.cd"}}, {"type": "Feature", "geometry": {"type": "Point", "coordinates": [30.6967774, 2.8864498]}, "properties": {"attribution": "\u00abCes donn\u00e9es g\u00e9ographiques proviennent du R\u00e9f\u00e9rentiel G\u00e9ographique Commun (www.rgc.cd).\u00bb", "is_in:collectivit\u00e9": "Kakwa", "is_in:groupement": "Rumu", "is_in:territoire": "Aru", "name": "Rodo", "place": "village", "source": "GPS", "source:date": "2008/06/13", "source_ref": "www.rgc.cd"}}, {"type": "Feature", "geometry": {"type": "Point", "coordinates": [30.84175, 2.3681389]}, "properties": {"alt_name": "Kabasa", "attribution": "\u00abCes donn\u00e9es g\u00e9ographiques proviennent du R\u00e9f\u00e9rentiel G\u00e9ographique Commun (www.rgc.cd).\u00bb", "is_in:collectivit\u00e9": "War-Palara", "is_in:groupement": "Kabasa", "is_in:territoire": "Mahagi", "name": "Tilal", "place": "village", "source": "GPS", "source:date": "2009/02/12", "source_ref": "www.rgc.cd"}}, {"type": "Feature", "geometry": {"type": "Point", "coordinates": [30.824167, 2.8594439]}, "properties": {"admin_level": "6", "attribution": "\u00abCes donn\u00e9es g\u00e9ographiques proviennent du R\u00e9f\u00e9rentiel G\u00e9ographique Commun (www.rgc.cd).\u00bb", "capital": "6", "is_in:collectivit\u00e9": "Otso", "is_in:territoire": "Aru", "name": "Aru", "name:ru": "\u0410\u0440\u0443", "place": "town", "source": "GPS", "source:date": "2007/05/17", "source_ref": "www.rgc.cd", "wikidata": "Q4801975", "wikipedia": "en:Aru, Democratic Republic of the Congo"}}, {"type": "Feature", "geometry": {"type": "Point", "coordinates": [30.8333329, 2.35]}, "properties": {"attribution": "\u00abCes donn\u00e9es g\u00e9ographiques proviennent du R\u00e9f\u00e9rentiel G\u00e9ographique Commun (www.rgc.cd).\u00bb", "is_in:collectivit\u00e9": "War-Palara", "is_in:groupement": "Pakwo", "is_in:territoire": "Mahagi", "name": "Tilal II", "place": "village", "source": "GPS", "source:date": "2007/10/23", "source_ref": "www.rgc.cd"}}, {"type": "Feature", "geometry": {"type": "Point", "coordinates": [30.6318946, 2.9153507]}, "properties": {"attribution": "\u00abCes donn\u00e9es g\u00e9ographiques proviennent du R\u00e9f\u00e9rentiel G\u00e9ographique Commun (www.rgc.cd).\u00bb", "is_in:collectivit\u00e9": "Lu", "is_in:territoire": "Aru", "name": "Ongona", "place": "village", "source": "GPS", "source:date": "2008/06/13", "source_ref": "www.rgc.cd"}}, {"type": "Feature", "geometry": {"type": "Point", "coordinates": [30.6979912, 3.1340398]}, "properties": {"attribution": "\u00abCes donn\u00e9es g\u00e9ographiques proviennent du R\u00e9f\u00e9rentiel G\u00e9ographique Commun (www.rgc.cd).\u00bb", "name": "Ariwara", "place": "town", "source": "GPS", "source:date": "2007/05/17", "source_ref": "www.rgc.cd"}}, {"type": "Feature", "geometry": {"type": "Point", "coordinates": [30.521755, 2.5826941]}, "properties": {"attribution": "\u00abCes donn\u00e9es g\u00e9ographiques proviennent du R\u00e9f\u00e9rentiel G\u00e9ographique Commun (www.rgc.cd).\u00bb", "is_in:collectivit\u00e9": "Alur-Djuganda", "is_in:groupement": "Koch-Lala", "is_in:territoire": "Mahagi", "name": "Nzani", "place": "village", "source": "GPS", "source:date": "2008/11/25", "source_ref": "www.rgc.cd"}}, {"type": "Feature", "geometry": {"type": "Point", "coordinates": [30.6040483, 3.0683901]}, "properties": {"attribution": "\u00abCes donn\u00e9es g\u00e9ographiques proviennent du R\u00e9f\u00e9rentiel G\u00e9ographique Commun (www.rgc.cd).\u00bb", "is_in:collectivit\u00e9": "Zaki", "is_in:territoire": "Aru", "name": "Poni", "place": "village", "source": "GPS", "source:date": "2008/06/13", "source_ref": "www.rgc.cd"}}, {"type": "Feature", "geometry": {"type": "Point", "coordinates": [30.5673447, 2.2964845]}, "properties": {"attribution": "\u00abCes donn\u00e9es g\u00e9ographiques proviennent du R\u00e9f\u00e9rentiel G\u00e9ographique Commun (www.rgc.cd).\u00bb", "is_in:collectivit\u00e9": "Walendu Watsi", "is_in:territoire": "Mahagi", "name": "Mbitsi", "place": "village", "source": "GPS", "source:date": "2008/04/24", "source_ref": "www.rgc.cd"}}, {"type": "Feature", "geometry": {"type": "Point", "coordinates": [30.7386832, 2.8284829]}, "properties": {"attribution": "\u00abCes donn\u00e9es g\u00e9ographiques proviennent du R\u00e9f\u00e9rentiel G\u00e9ographique Commun (www.rgc.cd).\u00bb", "is_in:collectivit\u00e9": "Lu", "is_in:territoire": "Aru", "name": "Orivu", "place": "village", "source": "GPS", "source:date": "2007/05/17", "source_ref": "www.rgc.cd"}}, {"type": "Feature", "geometry": {"type": "Point", "coordinates": [30.5293293, 2.9044515]}, "properties": {"attribution": "\u00abCes donn\u00e9es g\u00e9ographiques proviennent du R\u00e9f\u00e9rentiel G\u00e9ographique Commun (www.rgc.cd).\u00bb", "is_in:collectivit\u00e9": "Aluru", "is_in:territoire": "Aru", "name": "Eyonga", "place": "village", "source": "GPS", "source:date": "2008/06/13", "source_ref": "www.rgc.cd"}}, {"type": "Feature", "geometry": {"type": "Point", "coordinates": [30.5434537, 2.6143324]}, "properties": {"attribution": "\u00abCes donn\u00e9es g\u00e9ographiques proviennent du R\u00e9f\u00e9rentiel G\u00e9ographique Commun (www.rgc.cd).\u00bb", "is_in:collectivit\u00e9": "Alur-Djuganda", "is_in:groupement": "Koch-Lala", "is_in:territoire": "Mahagi", "name": "Lala I", "place": "village", "source": "GPS", "source:date": "2008/11/25", "source_ref": "www.rgc.cd"}}, {"type": "Feature", "geometry": {"type": "Point", "coordinates": [30.6180562, 2.784667]}, "properties": {"attribution": "\u00abCes donn\u00e9es g\u00e9ographiques proviennent du R\u00e9f\u00e9rentiel G\u00e9ographique Commun (www.rgc.cd).\u00bb", "is_in:collectivit\u00e9": "Lu", "is_in:territoire": "Aru", "name": "Odranyi", "place": "village", "source": "GPS", "source:date": "2007/05/17", "source_ref": "www.rgc.cd"}}, {"type": "Feature", "geometry": {"type": "Point", "coordinates": [30.7008176, 2.3381571]}, "properties": {"attribution": "\u00abCes donn\u00e9es g\u00e9ographiques proviennent du R\u00e9f\u00e9rentiel G\u00e9ographique Commun (www.rgc.cd).\u00bb", "is_in:collectivit\u00e9": "Pandoro", "is_in:territoire": "Mahagi", "name": "Katanga", "place": "village", "source": "GPS", "source:date": "2007/05/17", "source_ref": "www.rgc.cd"}}, {"type": "Feature", "geometry": {"type": "Point", "coordinates": [30.9036667, 2.3249444]}, "properties": {"alt_name": "Kabasa", "attribution": "\u00abCes donn\u00e9es g\u00e9ographiques proviennent du R\u00e9f\u00e9rentiel G\u00e9ographique Commun (www.rgc.cd).\u00bb", "is_in:collectivit\u00e9": "War-Palara", "is_in:groupement": "Kabasa", "is_in:territoire": "Mahagi", "name": "Jupawaza", "place": "village", "source": "GPS", "source:date": "2009/02/12", "source_ref": "www.rgc.cd"}}, {"type": "Feature", "geometry": {"type": "Point", "coordinates": [30.7544613, 2.8040114]}, "properties": {"attribution": "\u00abCes donn\u00e9es g\u00e9ographiques proviennent du R\u00e9f\u00e9rentiel G\u00e9ographique Commun (www.rgc.cd).\u00bb", "is_in:collectivit\u00e9": "Lu", "is_in:territoire": "Aru", "name": "Nyacha Odru", "place": "village", "source": "GPS", "source:date": "2007/05/17", "source_ref": "www.rgc.cd"}}, {"type": "Feature", "geometry": {"type": "Point", "coordinates": [30.5656283, 2.3266703]}, "properties": {"alt_name": "Kampala", "attribution": "\u00abCes donn\u00e9es g\u00e9ographiques proviennent du R\u00e9f\u00e9rentiel G\u00e9ographique Commun (www.rgc.cd).\u00bb", "is_in:collectivit\u00e9": "Pandoro", "is_in:territoire": "Mahagi", "name": "Kambala", "place": "village", "source": "GPS", "source:date": "2008/04/24", "source_ref": "www.rgc.cd"}}, {"type": "Feature", "geometry": {"type": "Point", "coordinates": [30.5719657, 2.9230054]}, "properties": {"attribution": "\u00abCes donn\u00e9es g\u00e9ographiques proviennent du R\u00e9f\u00e9rentiel G\u00e9ographique Commun (www.rgc.cd).\u00bb", "is_in:collectivit\u00e9": "Aluru", "is_in:groupement": "Apinaka", "is_in:territoire": "Aru", "name": "Apinaka", "place": "village", "source": "GPS", "source:date": "2008/06/13", "source_ref": "www.rgc.cd"}}, {"type": "Feature", "geometry": {"type": "Point", "coordinates": [31.088056, 2.2755561]}, "properties": {"attribution": "\u00abCes donn\u00e9es g\u00e9ographiques proviennent du R\u00e9f\u00e9rentiel G\u00e9ographique Commun (www.rgc.cd).\u00bb", "name": "Linga", "name:fr": "Linga village Cafe", "place": "village", "source": "GPS", "source:date": "2007/05/17", "source_ref": "www.rgc.cd"}}, {"type": "Feature", "geometry": {"type": "Point", "coordinates": [30.7897778, 2.2648889]}, "properties": {"attribution": "\u00abCes donn\u00e9es g\u00e9ographiques proviennent du R\u00e9f\u00e9rentiel G\u00e9ographique Commun (www.rgc.cd).\u00bb", "is_in:collectivit\u00e9": "Pandoro", "is_in:groupement": "Ngote", "is_in:territoire": "Mahagi", "name": "Djupujuru", "place": "village", "source": "GPS", "source:date": "2007/09/13", "source_ref": "www.rgc.cd"}}, {"type": "Feature", "geometry": {"type": "Point", "coordinates": [31.0675, 2.295833]}, "properties": {"attribution": "\u00abCes donn\u00e9es g\u00e9ographiques proviennent du R\u00e9f\u00e9rentiel G\u00e9ographique Commun (www.rgc.cd).\u00bb", "name": "Jakanja", "place": "village", "source": "GPS", "source:date": "2007/05/17", "source_ref": "www.rgc.cd"}}, {"type": "Feature", "geometry": {"type": "Point", "coordinates": [30.442018, 2.762002]}, "properties": {"attribution": "\u00abCes donn\u00e9es g\u00e9ographiques proviennent du R\u00e9f\u00e9rentiel G\u00e9ographique Commun (www.rgc.cd).\u00bb", "is_in:collectivit\u00e9": "Alur-Djuganda", "is_in:groupement": "Aupa", "is_in:territoire": "Mahagi", "name": "Wadaka", "place": "village", "source": "GPS", "source:date": "2008/07/01", "source_ref": "www.rgc.cd"}}, {"type": "Feature", "geometry": {"type": "Point", "coordinates": [30.7465643, 3.0105224]}, "properties": {"alt_name": "Avoa;Ovoa", "attribution": "\u00abCes donn\u00e9es g\u00e9ographiques proviennent du R\u00e9f\u00e9rentiel G\u00e9ographique Commun (www.rgc.cd).\u00bb", "is_in:collectivit\u00e9": "Zaki", "is_in:territoire": "Aru", "name": "Ova", "note": "GeoNames has this village as \"Avoa\", RGC as \"Ova\" and the loval health clinic names it as \"Ovoa\"", "place": "village", "source": "GPS", "source:date": "2008/06/13", "source_ref": "www.rgc.cd"}}, {"type": "Feature", "geometry": {"type": "Point", "coordinates": [30.7055622, 2.2858353]}, "properties": {"attribution": "\u00abCes donn\u00e9es g\u00e9ographiques proviennent du R\u00e9f\u00e9rentiel G\u00e9ographique Commun (www.rgc.cd).\u00bb", "is_in:collectivit\u00e9": "Pandoro", "is_in:groupement": "Ngote", "is_in:territoire": "Mahagi", "name": "Djupazaga", "place": "village", "source": "GPS", "source:date": "2007/06/15", "source_ref": "www.rgc.cd"}}, {"type": "Feature", "geometry": {"type": "Point", "coordinates": [30.7455101, 2.2559571]}, "properties": {"attribution": "\u00abCes donn\u00e9es g\u00e9ographiques proviennent du R\u00e9f\u00e9rentiel G\u00e9ographique Commun (www.rgc.cd).\u00bb", "is_in:collectivit\u00e9": "Pandoro", "is_in:groupement": "Ngote", "is_in:territoire": "Mahagi", "name": "Djuparieza", "place": "village", "source": "GPS", "source:date": "2007/06/15", "source_ref": "www.rgc.cd"}}, {"type": "Feature", "geometry": {"type": "Point", "coordinates": [30.8657222, 2.3498611]}, "properties": {"alt_name": "Kabasa", "attribution": "\u00abCes donn\u00e9es g\u00e9ographiques proviennent du R\u00e9f\u00e9rentiel G\u00e9ographique Commun (www.rgc.cd).\u00bb", "is_in:collectivit\u00e9": "War-Palara", "is_in:groupement": "Kabasa", "is_in:territoire": "Mahagi", "name": "Jupagenombe", "place": "village", "source": "GPS", "source:date": "2009/02/12", "source_ref": "www.rgc.cd"}}, {"type": "Feature", "geometry": {"type": "Point", "coordinates": [30.7763408, 2.948327]}, "properties": {"alt_name": "Ondolea", "attribution": "\u00abCes donn\u00e9es g\u00e9ographiques proviennent du R\u00e9f\u00e9rentiel G\u00e9ographique Commun (www.rgc.cd).\u00bb", "is_in:collectivit\u00e9": "Nio-Kamule", "is_in:territoire": "Aru", "name": "Ondoleiya", "place": "village", "source": "GPS", "source:date": "2008/06/13", "source_ref": "www.rgc.cd"}}, {"type": "Feature", "geometry": {"type": "Point", "coordinates": [30.6956667, 2.2694167]}, "properties": {"alt_name": "Ali", "attribution": "\u00abCes donn\u00e9es g\u00e9ographiques proviennent du R\u00e9f\u00e9rentiel G\u00e9ographique Commun (www.rgc.cd).\u00bb", "is_in:collectivit\u00e9": "Pandoro", "is_in:groupement": "Ngote", "is_in:territoire": "Mahagi", "name": "Ali Yana", "place": "village", "source": "GPS", "source:date": "2007/05/09", "source_ref": "www.rgc.cd"}}, {"type": "Feature", "geometry": {"type": "Point", "coordinates": [30.46, 2.6374444]}, "properties": {"attribution": "\u00abCes donn\u00e9es g\u00e9ographiques proviennent du R\u00e9f\u00e9rentiel G\u00e9ographique Commun (www.rgc.cd).\u00bb", "is_in:collectivit\u00e9": "Alur-Djuganda", "is_in:groupement": "Aupa", "is_in:territoire": "Mahagi", "name": "Avere", "place": "village", "source": "GPS", "source:date": "2008/07/20", "source_ref": "www.rgc.cd"}}, {"type": "Feature", "geometry": {"type": "Point", "coordinates": [30.8519945, 2.4305622]}, "properties": {"attribution": "\u00abCes donn\u00e9es g\u00e9ographiques proviennent du R\u00e9f\u00e9rentiel G\u00e9ographique Commun (www.rgc.cd).\u00bb", "name": "Djupanjete", "place": "village", "source": "GPS", "source:date": "2008/04/04", "source_ref": "www.rgc.cd"}}, {"type": "Feature", "geometry": {"type": "Point", "coordinates": [30.5832366, 2.9457946]}, "properties": {"attribution": "\u00abCes donn\u00e9es g\u00e9ographiques proviennent du R\u00e9f\u00e9rentiel G\u00e9ographique Commun (www.rgc.cd).\u00bb", "is_in:collectivit\u00e9": "Aluru", "is_in:territoire": "Aru", "name": "Anyoro", "place": "village", "source": "GPS", "source:date": "2008/06/13", "source_ref": "www.rgc.cd"}}, {"type": "Feature", "geometry": {"type": "Point", "coordinates": [30.8278499, 2.2766969]}, "properties": {"attribution": "\u00abCes donn\u00e9es g\u00e9ographiques proviennent du R\u00e9f\u00e9rentiel G\u00e9ographique Commun (www.rgc.cd).\u00bb", "is_in:collectivit\u00e9": "Pandoro", "is_in:groupement": "Akapa", "is_in:territoire": "Mahagi", "name": "Djupumolo", "place": "village", "source": "GPS", "source:date": "2008/04/04", "source_ref": "www.rgc.cd"}}, {"type": "Feature", "geometry": {"type": "Point", "coordinates": [30.4583889, 2.6318056]}, "properties": {"attribution": "\u00abCes donn\u00e9es g\u00e9ographiques proviennent du R\u00e9f\u00e9rentiel G\u00e9ographique Commun (www.rgc.cd).\u00bb", "is_in:collectivit\u00e9": "Alur-Djuganda", "is_in:groupement": "Aupa", "is_in:territoire": "Mahagi", "name": "Sunda", "place": "village", "source": "GPS", "source:date": "2008/07/20", "source_ref": "www.rgc.cd"}}, {"type": "Feature", "geometry": {"type": "Point", "coordinates": [30.6349934, 2.9857139]}, "properties": {"attribution": "\u00abCes donn\u00e9es g\u00e9ographiques proviennent du R\u00e9f\u00e9rentiel G\u00e9ographique Commun (www.rgc.cd).\u00bb", "is_in:collectivit\u00e9": "Lu", "is_in:territoire": "Aru", "name": "Akaba", "place": "village", "source": "GPS", "source:date": "2008/06/13", "source_ref": "www.rgc.cd"}}, {"type": "Feature", "geometry": {"type": "Point", "coordinates": [30.8210278, 2.3275556]}, "properties": {"attribution": "\u00abCes donn\u00e9es g\u00e9ographiques proviennent du R\u00e9f\u00e9rentiel G\u00e9ographique Commun (www.rgc.cd).\u00bb", "is_in:collectivit\u00e9": "Pandoro", "is_in:groupement": "Akapa", "is_in:territoire": "Mahagi", "name": "Panitu-Azabu", "place": "village", "source": "GPS", "source:date": "2008/04/04", "source_ref": "www.rgc.cd"}}, {"type": "Feature", "geometry": {"type": "Point", "coordinates": [30.8086233, 2.2898869]}, "properties": {"attribution": "\u00abCes donn\u00e9es g\u00e9ographiques proviennent du R\u00e9f\u00e9rentiel G\u00e9ographique Commun (www.rgc.cd).\u00bb", "is_in:collectivit\u00e9": "Pandoro", "is_in:groupement": "Akapa", "is_in:territoire": "Mahagi", "name": "Tangla", "place": "village", "source": "GPS", "source:date": "2008/04/04", "source_ref": "www.rgc.cd"}}, {"type": "Feature", "geometry": {"type": "Point", "coordinates": [30.506936, 2.5584234]}, "properties": {"attribution": "\u00abCes donn\u00e9es g\u00e9ographiques proviennent du R\u00e9f\u00e9rentiel G\u00e9ographique Commun (www.rgc.cd).\u00bb", "is_in:collectivit\u00e9": "Anghal II", "is_in:territoire": "Mahagi", "name": "Jelasiga", "place": "village", "source": "GPS", "source:date": "2007/05/17", "source_ref": "www.rgc.cd"}}, {"type": "Feature", "geometry": {"type": "Point", "coordinates": [30.8795326, 2.8865164]}, "properties": {"attribution": "\u00abCes donn\u00e9es g\u00e9ographiques proviennent du R\u00e9f\u00e9rentiel G\u00e9ographique Commun (www.rgc.cd).\u00bb", "is_in:collectivit\u00e9": "Otso", "is_in:territoire": "Aru", "name": "Vurra", "place": "village", "source": "GPS", "source:date": "2007/05/17", "source_ref": "www.rgc.cd", "wikidata": "Q22082420"}}, {"type": "Feature", "geometry": {"type": "Point", "coordinates": [30.82625, 2.2832778]}, "properties": {"attribution": "\u00abCes donn\u00e9es g\u00e9ographiques proviennent du R\u00e9f\u00e9rentiel G\u00e9ographique Commun (www.rgc.cd).\u00bb", "is_in:collectivit\u00e9": "Pandoro", "is_in:groupement": "Akapa", "is_in:territoire": "Mahagi", "name": "Djupiriembi", "place": "village", "source": "GPS", "source:date": "2008/04/04", "source_ref": "www.rgc.cd"}}, {"type": "Feature", "geometry": {"type": "Point", "coordinates": [32.9058379, 3.2554398]}, "properties": {"name": "Labongo", "place": "village"}}, {"type": "Feature", "geometry": {"type": "Point", "coordinates": [32.9151724, 3.2420164]}, "properties": {"name": "Akworo", "place": "village"}}, {"type": "Feature", "geometry": {"type": "Point", "coordinates": [31.2420447, 3.0975664]}, "properties": {"GNS:dsg_code": "PPL", "GNS:dsg_string": "populated place", "GNS:id": "11326200", "fixme": "no population estimate available, defaulted to village", "name": "Yoro", "place": "village", "source": "GNS"}}, {"type": "Feature", "geometry": {"type": "Point", "coordinates": [31.5545362, 2.4620271]}, "properties": {"FIXME": "Microsoft Bing satellite imagery shows not even a hint of a village at that position.", "name": "Pakabu", "place": "village"}}, {"type": "Feature", "geometry": {"type": "Point", "coordinates": [31.839762, 2.534919]}, "properties": {"GNS:dsg_code": "PPL", "GNS:dsg_string": "populated place", "GNS:id": "-1734656", "fixme": "no population estimate available, defaulted to village", "name": "Purongo", "place": "village", "source": "GNS"}}, {"type": "Feature", "geometry": {"type": "Point", "coordinates": [31.8236478, 2.5526196]}, "properties": {"name": "Wianono", "place": "village"}}, {"type": "Feature", "geometry": {"type": "Point", "coordinates": [31.6327711, 2.5694042]}, "properties": {"name": "Pajengo", "place": "village"}}, {"type": "Feature", "geometry": {"type": "Point", "coordinates": [31.5932031, 2.5121262]}, "properties": {"FIXME": "Microsoft Bing satellite imagery shows not even a hint of a village at that position.", "name": "Te Okot", "place": "village"}}, {"type": "Feature", "geometry": {"type": "Point", "coordinates": [31.6495499, 2.5647536]}, "properties": {"name": "Latoro", "place": "village"}}, {"type": "Feature", "geometry": {"type": "Point", "coordinates": [31.5623255, 2.4783094]}, "properties": {"FIXME": "Microsoft Bing satellite imagery shows not even a hint of a village at that position.", "name": "Got Apwoyo", "place": "village"}}, {"type": "Feature", "geometry": {"type": "Point", "coordinates": [30.9325277, 3.0154805]}, "properties": {"name": "Mvara", "place": "village"}}, {"type": "Feature", "geometry": {"type": "Point", "coordinates": [30.9649545, 3.0123712]}, "properties": {"name": "Ayivu County", "place": "village"}}, {"type": "Feature", "geometry": {"type": "Point", "coordinates": [31.7905912, 3.3769442]}, "properties": {"name": "Adjumani", "name:ru": "\u0410\u0434\u0436\u0443\u043c\u0430\u043d\u0438", "place": "town", "wikidata": "Q3499673", "wikipedia": "en:Adjumani"}}, {"type": "Feature", "geometry": {"type": "Point", "coordinates": [32.6689649, 2.9610832]}, "properties": {"place": "village"}}, {"type": "Feature", "geometry": {"type": "Point", "coordinates": [32.6137072, 2.9644913]}, "properties": {"place": "village"}}, {"type": "Feature", "geometry": {"type": "Point", "coordinates": [32.7235103, 2.9896692]}, "properties": {"place": "village"}}, {"type": "Feature", "geometry": {"type": "Point", "coordinates": [32.6955724, 2.964169]}, "properties": {"place": "village"}}, {"type": "Feature", "geometry": {"type": "Point", "coordinates": [32.5156702, 2.9225103]}, "properties": {"name": "Cwero", "place": "village"}}, {"type": "Feature", "geometry": {"type": "Point", "coordinates": [32.640939, 2.9657526]}, "properties": {"place": "village"}}, {"type": "Feature", "geometry": {"type": "Point", "coordinates": [32.9136252, 3.1432575]}, "properties": {"name": "Acholibur", "place": "village"}}, {"type": "Feature", "geometry": {"type": "Point", "coordinates": [32.870152, 3.1016486]}, "properties": {"place": "village"}}, {"type": "Feature", "geometry": {"type": "Point", "coordinates": [32.8895948, 3.1206749]}, "properties": {"place": "village"}}, {"type": "Feature", "geometry": {"type": "Point", "coordinates": [32.7642369, 3.0269112]}, "properties": {"place": "village"}}, {"type": "Feature", "geometry": {"type": "Point", "coordinates": [32.4528432, 2.8938798]}, "properties": {"place": "village"}}, {"type": "Feature", "geometry": {"type": "Point", "coordinates": [32.825161, 3.4839972]}, "properties": {"place": "village"}}, {"type": "Feature", "geometry": {"type": "Point", "coordinates": [32.7848464, 3.4551339]}, "properties": {"place": "village"}}, {"type": "Feature", "geometry": {"type": "Point", "coordinates": [32.9232054, 3.2627751]}, "properties": {"place": "village"}}, {"type": "Feature", "geometry": {"type": "Point", "coordinates": [33.0574017, 3.3266989]}, "properties": {"place": "village"}}, {"type": "Feature", "geometry": {"type": "Point", "coordinates": [32.9270249, 3.2027892]}, "properties": {"place": "village"}}, {"type": "Feature", "geometry": {"type": "Point", "coordinates": [33.0185076, 3.8016149]}, "properties": {"name": "Agoro", "place": "village"}}, {"type": "Feature", "geometry": {"type": "Point", "coordinates": [33.4496212, 3.9747731]}, "properties": {"name": "Lotome", "place": "village"}}, {"type": "Feature", "geometry": {"type": "Point", "coordinates": [33.5814029, 3.8329535]}, "properties": {"name": "Bira", "place": "village"}}, {"type": "Feature", "geometry": {"type": "Point", "coordinates": [33.4692912, 3.3998302]}, "properties": {"ele": "1062", "name": "Orom", "place": "town"}}, {"type": "Feature", "geometry": {"type": "Point", "coordinates": [33.4829472, 2.7431885]}, "properties": {"name": "Adilang", "place": "village", "wikidata": "Q16868894", "wikipedia": "en:Adilang"}}, {"type": "Feature", "geometry": {"type": "Point", "coordinates": [32.4819444, 3.865]}, "properties": {"name": "Pajok", "place": "town", "wikidata": "Q7137581", "wikipedia": "en:Parjok"}}, {"type": "Feature", "geometry": {"type": "Point", "coordinates": [30.9104823, 3.0225076]}, "properties": {"name": "Arua", "name:ko": "\uc544\ub8e8\uc544", "place": "town", "population": "62657", "source": "http://www.citypopulation.de/Uganda-Cities.html", "wikidata": "Q500111", "wikipedia": "en:Arua"}}, {"type": "Feature", "geometry": {"type": "Point", "coordinates": [31.9364196, 3.9064203]}, "properties": {"name": "Kerepi", "place": "village"}}, {"type": "Feature", "geometry": {"type": "Point", "coordinates": [31.9569508, 3.868055]}, "properties": {"name": "Pageri", "place": "village"}}, {"type": "Feature", "geometry": {"type": "Point", "coordinates": [32.0601419, 3.5969348]}, "properties": {"census": "2006", "name": "Nimule", "name:ar": "\u0646\u0645\u0648\u0644\u064a", "name:de": "Nimule", "name:en": "Nimule", "name:es": "Nimule", "name:fr": "Nimule", "name:ru": "\u041d\u0438\u043c\u0443\u043b\u0435", "place": "city", "population": "45000", "wikidata": "Q1992727", "wikipedia": "en:Nimule"}}, {"type": "Feature", "geometry": {"type": "Point", "coordinates": [32.052585, 3.6003847]}, "properties": {"name": "Parahiso", "place": "village"}}, {"type": "Feature", "geometry": {"type": "Point", "coordinates": [30.8676567, 3.1166276]}, "properties": {"GNS:dsg_code": "PPL", "GNS:dsg_string": "populated place", "GNS:id": "-1732151", "is_in:country": "Uganda", "name": "Michu", "place": "village", "source": "GNS"}}, {"type": "Feature", "geometry": {"type": "Point", "coordinates": [30.8810739, 3.5469668]}, "properties": {"name": "Kaya", "place": "town"}}, {"type": "Feature", "geometry": {"type": "Point", "coordinates": [30.875517, 2.463512]}, "properties": {"GNS:dsg_code": "PPL", "GNS:dsg_string": "populated place", "GNS:id": "-1725653", "fixme": "no population estimate available, defaulted to village", "name": "Abaji", "place": "village", "source": "GNS"}}, {"type": "Feature", "geometry": {"type": "Point", "coordinates": [33.045, 2.382778]}, "properties": {"GNS:dsg_code": "PPL", "GNS:dsg_string": "populated place", "GNS:id": "-1726152", "fixme": "no population estimate available, defaulted to village", "name": "Abala", "place": "village", "source": "GNS"}}, {"type": "Feature", "geometry": {"type": "Point", "coordinates": [31.379943, 2.951443]}, "properties": {"GNS:dsg_code": "PPL", "GNS:dsg_string": "populated place", "GNS:id": "-1725670", "fixme": "no population estimate available, defaulted to village", "is_in:country": "Uganda", "name": "Abario", "place": "village", "source": "GNS"}}, {"type": "Feature", "geometry": {"type": "Point", "coordinates": [31.366743, 2.950405]}, "properties": {"GNS:dsg_code": "PPL", "GNS:dsg_string": "populated place", "GNS:id": "11330171", "fixme": "no population estimate available, defaulted to village", "is_in:country": "Uganda", "name": "Abarua", "place": "village", "source": "GNS"}}, {"type": "Feature", "geometry": {"type": "Point", "coordinates": [30.945754, 3.076494]}, "properties": {"GNS:dsg_code": "PPL", "GNS:dsg_string": "populated place", "GNS:id": "-1725686", "is_in:country": "Uganda", "name": "Abi", "place": "village", "source": "GNS"}}, {"type": "Feature", "geometry": {"type": "Point", "coordinates": [30.813202, 3.078768]}, "properties": {"GNS:dsg_code": "PPL", "GNS:dsg_string": "populated place", "GNS:id": "-1725687", "fixme": "no population estimate available, defaulted to village", "is_in:country": "Uganda", "name": "Abia", "place": "village", "source": "GNS"}}, {"type": "Feature", "geometry": {"type": "Point", "coordinates": [30.975417, 3.241779]}, "properties": {"GNS:dsg_code": "PPL", "GNS:dsg_string": "populated place", "GNS:id": "-1725688", "is_in:country": "Uganda", "name": "Abia", "place": "village", "source": "GNS"}}, {"type": "Feature", "geometry": {"type": "Point", "coordinates": [31.0131022, 3.2605575]}, "properties": {"GNS:dsg_code": "PPL", "GNS:dsg_string": "populated place", "GNS:id": "-1725692", "fixme": "no population estimate available, defaulted to village", "name": "Abiria", "place": "village", "source": "GNS"}}, {"type": "Feature", "geometry": {"type": "Point", "coordinates": [33.116667, 2.45]}, "properties": {"GNS:dsg_code": "PPL", "GNS:dsg_string": "populated place", "GNS:id": "-1725695", "fixme": "no population estimate available, defaulted to village", "name": "Abiya", "place": "village", "source": "GNS"}}, {"type": "Feature", "geometry": {"type": "Point", "coordinates": [32.6848263, 2.3333183]}, "properties": {"GNS:dsg_code": "PPL", "GNS:dsg_string": "populated place", "GNS:id": "-1725698", "fixme": "no population estimate available, defaulted to village", "name": "Aboke", "place": "village", "source": "Any Comments:Call: Surveyor Crispus Ogwal @ +256 773 293 432 / +256 706 786 400", "wikidata": "Q3603745", "wikipedia": "en:Aboke"}}, {"type": "Feature", "geometry": {"type": "Point", "coordinates": [31.1348986, 2.3028813]}, "properties": {"GNS:dsg_code": "PPL", "GNS:dsg_string": "populated place", "GNS:id": "11327167", "fixme": "no population estimate available, defaulted to village", "name": "Abongo", "place": "village", "source": "GNS"}}, {"type": "Feature", "geometry": {"type": "Point", "coordinates": [31.097978, 2.366575]}, "properties": {"GNS:dsg_code": "PPL", "GNS:dsg_string": "populated place", "GNS:id": "-1725718", "fixme": "no population estimate available, defaulted to village", "name": "Acer", "place": "village", "source": "GNS"}}, {"type": "Feature", "geometry": {"type": "Point", "coordinates": [31.2605116, 2.9609941]}, "properties": {"GNS:dsg_code": "PPL", "GNS:dsg_string": "populated place", "GNS:id": "11330131", "fixme": "no population estimate available, defaulted to village", "is_in:country": "Uganda", "name": "Acha", "place": "village", "source": "GNS"}}, {"type": "Feature", "geometry": {"type": "Point", "coordinates": [32.468166, 2.396182]}, "properties": {"GNS:dsg_code": "PPL", "GNS:dsg_string": "populated place", "GNS:id": "-1725722", "fixme": "no population estimate available, defaulted to village", "name": "Achaba", "place": "village", "source": "GNS"}}, {"type": "Feature", "geometry": {"type": "Point", "coordinates": [32.533333, 2.933333]}, "properties": {"GNS:dsg_code": "PPL", "GNS:dsg_string": "populated place", "GNS:id": "-1725727", "fixme": "no population estimate available, defaulted to village", "is_in:country": "Uganda", "name": "Achar", "place": "village", "source": "GNS"}}, {"type": "Feature", "geometry": {"type": "Point", "coordinates": [32.456875, 2.362679]}, "properties": {"GNS:dsg_code": "PPL", "GNS:dsg_string": "populated place", "GNS:id": "11397537", "fixme": "no population estimate available, defaulted to village", "name": "Achara", "place": "village", "source": "GNS"}}, {"type": "Feature", "geometry": {"type": "Point", "coordinates": [32.533333, 2.4]}, "properties": {"GNS:dsg_code": "PPL", "GNS:dsg_string": "populated place", "GNS:id": "-1725731", "fixme": "no population estimate available, defaulted to village", "name": "Achet", "place": "village", "source": "GNS"}}, {"type": "Feature", "geometry": {"type": "Point", "coordinates": [31.5294843, 3.1985944]}, "properties": {"GNS:dsg_code": "PPL", "GNS:dsg_string": "populated place", "GNS:id": "11330229", "fixme": "no population estimate available, defaulted to village", "name": "Achimari", "place": "village", "source": "GNS"}}, {"type": "Feature", "geometry": {"type": "Point", "coordinates": [32.919722, 3.125833]}, "properties": {"GNS:dsg_code": "PPL", "GNS:dsg_string": "populated place", "GNS:id": "-1725738", "fixme": "no population estimate available, defaulted to village", "is_in:country": "Uganda", "name": "Acholibar", "place": "village", "source": "GNS"}}, {"type": "Feature", "geometry": {"type": "Point", "coordinates": [32.1226026, 3.2607567]}, "properties": {"GNS:dsg_code": "PPL", "GNS:dsg_string": "populated place", "GNS:id": "-1726293", "fixme": "no population estimate available, defaulted to village", "is_in:country": "Uganda", "name": "Aciak", "place": "village", "source": "GNS"}}, {"type": "Feature", "geometry": {"type": "Point", "coordinates": [33.616667, 2.3]}, "properties": {"GNS:dsg_code": "PPL", "GNS:dsg_string": "populated place", "GNS:id": "-1725766", "fixme": "no population estimate available, defaulted to village", "name": "Aderutu", "place": "village", "source": "GNS"}}, {"type": "Feature", "geometry": {"type": "Point", "coordinates": [30.787132, 2.48321]}, "properties": {"GNS:dsg_code": "PPL", "GNS:dsg_string": "populated place", "GNS:id": "-1725774", "fixme": "no population estimate available, defaulted to village", "name": "Adingi", "place": "village", "source": "GNS"}}, {"type": "Feature", "geometry": {"type": "Point", "coordinates": [31.909128, 3.412847]}, "properties": {"GNS:dsg_code": "PPL", "GNS:dsg_string": "populated place", "GNS:id": "-1725778", "fixme": "no population estimate available, defaulted to village", "is_in:country": "Uganda", "name": "Adjugopi", "place": "village", "source": "GNS"}}, {"type": "Feature", "geometry": {"type": "Point", "coordinates": [31.043013, 2.618526]}, "properties": {"GNS:dsg_code": "PPL", "GNS:dsg_string": "populated place", "GNS:id": "-1725794", "fixme": "no population estimate available, defaulted to village", "name": "Adra", "place": "village", "source": "GNS"}}, {"type": "Feature", "geometry": {"type": "Point", "coordinates": [31.059953, 2.609374]}, "properties": {"GNS:dsg_code": "PPL", "GNS:dsg_string": "populated place", "GNS:id": "11330052", "fixme": "no population estimate available, defaulted to village", "name": "Adraa", "place": "village", "source": "GNS"}}, {"type": "Feature", "geometry": {"type": "Point", "coordinates": [31.096229, 3.189899]}, "properties": {"GNS:dsg_code": "PPL", "GNS:dsg_string": "populated place", "GNS:id": "-1725795", "fixme": "no population estimate available, defaulted to village", "name": "Adu", "place": "village", "source": "GNS"}}, {"type": "Feature", "geometry": {"type": "Point", "coordinates": [30.812382, 3.051046]}, "properties": {"GNS:dsg_code": "PPL", "GNS:dsg_string": "populated place", "GNS:id": "-1725801", "fixme": "no population estimate available, defaulted to village", "is_in:country": "Uganda", "name": "Adumi", "place": "village", "source": "GNS"}}, {"type": "Feature", "geometry": {"type": "Point", "coordinates": [31.869251, 3.502301]}, "properties": {"GNS:dsg_code": "PPL", "GNS:dsg_string": "populated place", "GNS:id": "11328173", "fixme": "no population estimate available, defaulted to village", "name": "Adzugopi", "place": "village", "source": "GNS"}}, {"type": "Feature", "geometry": {"type": "Point", "coordinates": [31.271624, 2.359112]}, "properties": {"GNS:dsg_code": "PPL", "GNS:dsg_string": "populated place", "GNS:id": "11327326", "fixme": "no population estimate available, defaulted to village", "name": "Afoyochan", "place": "village", "source": "GNS"}}, {"type": "Feature", "geometry": {"type": "Point", "coordinates": [31.182539, 2.442002]}, "properties": {"GNS:dsg_code": "PPL", "GNS:dsg_string": "populated place", "GNS:id": "11327109", "fixme": "no population estimate available, defaulted to village", "name": "Ageno", "place": "village", "source": "GNS"}}, {"type": "Feature", "geometry": {"type": "Point", "coordinates": [33.65, 2.316667]}, "properties": {"GNS:dsg_code": "PPL", "GNS:dsg_string": "populated place", "GNS:id": "-1725823", "fixme": "no population estimate available, defaulted to village", "name": "Agipaboni", "place": "village", "source": "GNS"}}, {"type": "Feature", "geometry": {"type": "Point", "coordinates": [31.715225, 3.445119]}, "properties": {"GNS:dsg_code": "PPL", "GNS:dsg_string": "populated place", "GNS:id": "11327385", "fixme": "no population estimate available, defaulted to village", "is_in:country": "Uganda", "name": "Agojo", "place": "village", "source": "GNS"}}, {"type": "Feature", "geometry": {"type": "Point", "coordinates": [32.138659, 2.984215]}, "properties": {"GNS:dsg_code": "PPL", "GNS:dsg_string": "populated place", "GNS:id": "11400562", "fixme": "no population estimate available, defaulted to village", "is_in:country": "Uganda", "name": "Agole", "place": "village", "source": "GNS"}}, {"type": "Feature", "geometry": {"type": "Point", "coordinates": [31.4110423, 3.0000674]}, "properties": {"GNS:dsg_code": "PPL", "GNS:dsg_string": "populated place", "GNS:id": "11330187", "fixme": "no population estimate available, defaulted to village", "is_in:country": "Uganda", "name": "Agonvususu", "place": "village", "source": "GNS"}}, {"type": "Feature", "geometry": {"type": "Point", "coordinates": [31.243602, 2.629537]}, "properties": {"GNS:dsg_code": "PPL", "GNS:dsg_string": "populated place", "GNS:id": "11329935", "fixme": "no population estimate available, defaulted to village", "name": "Agoro", "place": "village", "source": "GNS"}}, {"type": "Feature", "geometry": {"type": "Point", "coordinates": [33.0402346, 3.7562773]}, "properties": {"GNS:dsg_code": "PPL", "GNS:dsg_string": "populated place", "GNS:id": "-1725833", "name": "Agoro", "place": "village"}}, {"type": "Feature", "geometry": {"type": "Point", "coordinates": [31.385033, 2.738891]}, "properties": {"GNS:dsg_code": "PPL", "GNS:dsg_string": "populated place", "GNS:id": "11329683", "fixme": "no population estimate available, defaulted to village", "name": "Agu", "place": "village", "source": "GNS"}}, {"type": "Feature", "geometry": {"type": "Point", "coordinates": [31.427242, 2.577329]}, "properties": {"GNS:dsg_code": "PPL", "GNS:dsg_string": "populated place", "GNS:id": "11329680", "fixme": "no population estimate available, defaulted to village", "name": "Aguda", "place": "village", "source": "GNS"}}, {"type": "Feature", "geometry": {"type": "Point", "coordinates": [31.0082799, 2.5223408]}, "properties": {"GNS:dsg_code": "PPL", "GNS:dsg_string": "populated place", "GNS:id": "11330044", "fixme": "no population estimate available, defaulted to village", "name": "Aguli", "place": "village", "source": "GNS"}}, {"type": "Feature", "geometry": {"type": "Point", "coordinates": [31.3155438, 2.9800407]}, "properties": {"GNS:dsg_code": "PPL", "GNS:dsg_string": "populated place", "GNS:id": "11330157", "fixme": "no population estimate available, defaulted to village", "is_in:country": "Uganda", "name": "Agulubu", "place": "village", "source": "GNS"}}, {"type": "Feature", "geometry": {"type": "Point", "coordinates": [31.189412, 2.468448]}, "properties": {"GNS:dsg_code": "PPL", "GNS:dsg_string": "populated place", "GNS:id": "9148598", "fixme": "no population estimate available, defaulted to village", "name": "Agwok", "place": "village", "source": "GNS"}}, {"type": "Feature", "geometry": {"type": "Point", "coordinates": [31.216514, 2.882283]}, "properties": {"GNS:dsg_code": "PPL", "GNS:dsg_string": "populated place", "GNS:id": "-1726361", "fixme": "no population estimate available, defaulted to village", "is_in:country": "Uganda", "name": "Ai-avu", "place": "village", "source": "GNS"}}, {"type": "Feature", "geometry": {"type": "Point", "coordinates": [31.012265, 3.157556]}, "properties": {"GNS:dsg_code": "PPL", "GNS:dsg_string": "populated place", "GNS:id": "-1725866", "fixme": "no population estimate available, defaulted to village", "is_in:country": "Uganda", "name": "Aiivu", "place": "village", "source": "GNS"}}, {"type": "Feature", "geometry": {"type": "Point", "coordinates": [31.347796, 2.464543]}, "properties": {"GNS:dsg_code": "PPL", "GNS:dsg_string": "populated place", "GNS:id": "11327346", "fixme": "no population estimate available, defaulted to village", "name": "Aiwi", "place": "village", "source": "GNS"}}, {"type": "Feature", "geometry": {"type": "Point", "coordinates": [31.384338, 2.965573]}, "properties": {"GNS:dsg_code": "PPL", "GNS:dsg_string": "populated place", "GNS:id": "11330188", "fixme": "no population estimate available, defaulted to village", "is_in:country": "Uganda", "name": "Ajagoru", "place": "village", "source": "GNS"}}, {"type": "Feature", "geometry": {"type": "Point", "coordinates": [33.55, 2.283333]}, "properties": {"GNS:dsg_code": "PPL", "GNS:dsg_string": "populated place", "GNS:id": "-1725874", "fixme": "no population estimate available, defaulted to village", "name": "Ajaniti", "place": "village", "source": "GNS"}}, {"type": "Feature", "geometry": {"type": "Point", "coordinates": [31.309105, 2.751879]}, "properties": {"GNS:dsg_code": "PPL", "GNS:dsg_string": "populated place", "GNS:id": "11330169", "fixme": "no population estimate available, defaulted to village", "name": "Ajbu", "place": "village", "source": "GNS"}}, {"type": "Feature", "geometry": {"type": "Point", "coordinates": [30.904808, 3.325793]}, "properties": {"GNS:dsg_code": "PPL", "GNS:dsg_string": "populated place", "GNS:id": "-1725876", "name": "Ajebe", "place": "village", "source": "GNS"}}, {"type": "Feature", "geometry": {"type": "Point", "coordinates": [31.026949, 2.91583]}, "properties": {"GNS:dsg_code": "PPL", "GNS:dsg_string": "populated place", "GNS:id": "-1725884", "fixme": "no population estimate available, defaulted to village", "is_in:country": "Uganda", "name": "Ajia", "place": "village", "source": "GNS"}}, {"type": "Feature", "geometry": {"type": "Point", "coordinates": [31.145163, 2.733137]}, "properties": {"GNS:dsg_code": "PPL", "GNS:dsg_string": "populated place", "GNS:id": "11329952", "fixme": "no population estimate available, defaulted to village", "name": "Ajibu", "place": "village", "source": "GNS"}}, {"type": "Feature", "geometry": {"type": "Point", "coordinates": [31.139229, 2.758218]}, "properties": {"GNS:dsg_code": "PPL", "GNS:dsg_string": "populated place", "GNS:id": "11330221", "fixme": "no population estimate available, defaulted to village", "name": "Ajibu", "place": "village", "source": "GNS"}}, {"type": "Feature", "geometry": {"type": "Point", "coordinates": [30.880031, 2.967531]}, "properties": {"GNS:dsg_code": "PPL", "GNS:dsg_string": "populated place", "GNS:id": "-1725886", "is_in:country": "Uganda", "name": "Ajono", "place": "village", "source": "GNS"}}, {"type": "Feature", "geometry": {"type": "Point", "coordinates": [31.127838, 2.267392]}, "properties": {"GNS:dsg_code": "PPL", "GNS:dsg_string": "populated place", "GNS:id": "11327164", "fixme": "no population estimate available, defaulted to village", "name": "Ajor", "place": "village", "source": "GNS"}}, {"type": "Feature", "geometry": {"type": "Point", "coordinates": [31.745768, 3.471084]}, "properties": {"GNS:dsg_code": "PPL", "GNS:dsg_string": "populated place", "GNS:id": "11327373", "fixme": "no population estimate available, defaulted to village", "is_in:country": "Uganda", "name": "Ajujo", "place": "village", "source": "GNS"}}, {"type": "Feature", "geometry": {"type": "Point", "coordinates": [31.148713, 2.490368]}, "properties": {"GNS:dsg_code": "PPL", "GNS:dsg_string": "populated place", "GNS:id": "-1725890", "fixme": "no population estimate available, defaulted to village", "name": "Akaba", "place": "village", "source": "GNS"}}, {"type": "Feature", "geometry": {"type": "Point", "coordinates": [31.156043, 2.332919]}, "properties": {"GNS:dsg_code": "PPL", "GNS:dsg_string": "populated place", "GNS:id": "11327158", "fixme": "no population estimate available, defaulted to village", "name": "Akado", "place": "village", "source": "GNS"}}, {"type": "Feature", "geometry": {"type": "Point", "coordinates": [33.65, 2.65]}, "properties": {"GNS:dsg_code": "PPL", "GNS:dsg_string": "populated place", "GNS:id": "-1725894", "fixme": "no population estimate available, defaulted to village", "name": "Akado", "place": "village", "source": "GNS"}}, {"type": "Feature", "geometry": {"type": "Point", "coordinates": [31.719925, 3.640661]}, "properties": {"GNS:dsg_code": "PPL", "GNS:dsg_string": "populated place", "GNS:id": "11330487", "fixme": "no population estimate available, defaulted to village", "name": "Akala", "place": "village", "source": "GNS"}}, {"type": "Feature", "geometry": {"type": "Point", "coordinates": [31.20598, 2.531945]}, "properties": {"GNS:dsg_code": "PPL", "GNS:dsg_string": "populated place", "GNS:id": "-1725899", "fixme": "no population estimate available, defaulted to village", "name": "Akanyo", "place": "village", "source": "GNS"}}, {"type": "Feature", "geometry": {"type": "Point", "coordinates": [31.327855, 2.826162]}, "properties": {"GNS:dsg_code": "PPL", "GNS:dsg_string": "populated place", "GNS:id": "11330165", "fixme": "no population estimate available, defaulted to village", "is_in:country": "Uganda", "name": "Akavu", "place": "village", "source": "GNS"}}, {"type": "Feature", "geometry": {"type": "Point", "coordinates": [31.444126, 2.38858]}, "properties": {"GNS:dsg_code": "PPL", "GNS:dsg_string": "populated place", "GNS:id": "11327349", "fixme": "no population estimate available, defaulted to village", "name": "Akela", "place": "village", "source": "GNS"}}, {"type": "Feature", "geometry": {"type": "Point", "coordinates": [33.512222, 3.520833]}, "properties": {"GNS:dsg_code": "PPL", "GNS:dsg_string": "populated place", "GNS:id": "9151088", "fixme": "no population estimate available, defaulted to village", "name": "Akilok", "place": "village", "source": "GNS"}}, {"type": "Feature", "geometry": {"type": "Point", "coordinates": [31.367695, 3.250444]}, "properties": {"GNS:dsg_code": "PPL", "GNS:dsg_string": "populated place", "GNS:id": "-1725947", "fixme": "no population estimate available, defaulted to village", "is_in:country": "Uganda", "name": "Akpokoa", "place": "village", "source": "GNS"}}, {"type": "Feature", "geometry": {"type": "Point", "coordinates": [31.342612, 2.916478]}, "properties": {"GNS:dsg_code": "PPL", "GNS:dsg_string": "populated place", "GNS:id": "-1725965", "fixme": "no population estimate available, defaulted to village", "is_in:country": "Uganda", "name": "Ala", "place": "village", "source": "GNS"}}, {"type": "Feature", "geometry": {"type": "Point", "coordinates": [31.24855, 2.351336]}, "properties": {"GNS:dsg_code": "PPL", "GNS:dsg_string": "populated place", "GNS:id": "11327091", "fixme": "no population estimate available, defaulted to village", "name": "Alego", "place": "village", "source": "GNS"}}, {"type": "Feature", "geometry": {"type": "Point", "coordinates": [31.28258, 2.369801]}, "properties": {"GNS:dsg_code": "PPL", "GNS:dsg_string": "populated place", "GNS:id": "11327327", "fixme": "no population estimate available, defaulted to village", "name": "Alego", "place": "village", "source": "GNS"}}, {"type": "Feature", "geometry": {"type": "Point", "coordinates": [31.073502, 2.474541]}, "properties": {"GNS:dsg_code": "PPL", "GNS:dsg_string": "populated place", "GNS:id": "-1725983", "fixme": "no population estimate available, defaulted to village", "name": "Alego", "place": "village", "source": "GNS"}}, {"type": "Feature", "geometry": {"type": "Point", "coordinates": [32.1351786, 2.7560182]}, "properties": {"GNS:dsg_code": "PPL", "GNS:dsg_string": "populated place", "GNS:id": "11400444", "fixme": "no population estimate available, defaulted to village", "name": "Alelele", "place": "village", "source": "GNS"}}, {"type": "Feature", "geometry": {"type": "Point", "coordinates": [31.142685, 2.617152]}, "properties": {"GNS:dsg_code": "PPL", "GNS:dsg_string": "populated place", "GNS:id": "-1725989", "fixme": "no population estimate available, defaulted to village", "name": "Alengbele", "place": "village", "source": "GNS"}}, {"type": "Feature", "geometry": {"type": "Point", "coordinates": [30.935594, 2.727945]}, "properties": {"GNS:dsg_code": "PPL", "GNS:dsg_string": "populated place", "GNS:id": "-1725991", "fixme": "no population estimate available, defaulted to village", "name": "Alenzu", "place": "village", "source": "GNS"}}, {"type": "Feature", "geometry": {"type": "Point", "coordinates": [33.616667, 2.25]}, "properties": {"GNS:dsg_code": "PPL", "GNS:dsg_string": "populated place", "GNS:id": "-1725992", "fixme": "no population estimate available, defaulted to village", "name": "Alera", "place": "village", "source": "GNS"}}, {"type": "Feature", "geometry": {"type": "Point", "coordinates": [32.025131, 2.692973]}, "properties": {"GNS:dsg_code": "PPL", "GNS:dsg_string": "populated place", "GNS:id": "-1725995", "fixme": "no population estimate available, defaulted to village", "name": "Alero", "place": "village", "source": "GNS"}}, {"type": "Feature", "geometry": {"type": "Point", "coordinates": [31.185931, 2.371199]}, "properties": {"GNS:dsg_code": "PPL", "GNS:dsg_string": "populated place", "GNS:id": "11327135", "fixme": "no population estimate available, defaulted to village", "name": "Alew", "place": "village", "source": "GNS"}}, {"type": "Feature", "geometry": {"type": "Point", "coordinates": [31.2897949, 2.6000543]}, "properties": {"GNS:dsg_code": "PPL", "GNS:dsg_string": "populated place", "GNS:id": "11329829", "fixme": "no population estimate available, defaulted to village", "name": "Alia", "place": "village", "source": "GNS"}}, {"type": "Feature", "geometry": {"type": "Point", "coordinates": [31.546771, 3.273504]}, "properties": {"GNS:dsg_code": "PPL", "GNS:dsg_string": "populated place", "GNS:id": "9151168", "fixme": "no population estimate available, defaulted to village", "is_in:country": "Uganda", "name": "Aliba", "place": "village", "source": "GNS"}}, {"type": "Feature", "geometry": {"type": "Point", "coordinates": [31.5154716, 3.1784859]}, "properties": {"GNS:dsg_code": "PPL", "GNS:dsg_string": "populated place", "GNS:id": "11330239", "fixme": "no population estimate available, defaulted to village", "name": "Alibabito", "place": "village", "source": "GNS"}}, {"type": "Feature", "geometry": {"type": "Point", "coordinates": [31.509996, 3.209959]}, "properties": {"GNS:dsg_code": "PPL", "GNS:dsg_string": "populated place", "GNS:id": "11330234", "fixme": "no population estimate available, defaulted to village", "name": "Alibabito", "place": "village", "source": "GNS"}}, {"type": "Feature", "geometry": {"type": "Point", "coordinates": [31.078784, 2.7145864]}, "properties": {"GNS:dsg_code": "PPL", "GNS:dsg_string": "populated place", "GNS:id": "-1725999", "fixme": "no population estimate available, defaulted to village", "name": "Alibu", "place": "village", "source": "GNS"}}, {"type": "Feature", "geometry": {"type": "Point", "coordinates": [31.371777, 2.65048]}, "properties": {"GNS:dsg_code": "PPL", "GNS:dsg_string": "populated place", "GNS:id": "11329762", "fixme": "no population estimate available, defaulted to village", "name": "Alicako", "place": "village", "source": "GNS"}}, {"type": "Feature", "geometry": {"type": "Point", "coordinates": [31.458124, 3.181387]}, "properties": {"GNS:dsg_code": "PPL", "GNS:dsg_string": "populated place", "GNS:id": "11326253", "fixme": "no population estimate available, defaulted to village", "name": "Alinga", "place": "village", "source": "GNS"}}, {"type": "Feature", "geometry": {"type": "Point", "coordinates": [32.808611, 2.404444]}, "properties": {"GNS:dsg_code": "PPL", "GNS:dsg_string": "populated place", "GNS:id": "-1726007", "fixme": "no population estimate available, defaulted to village", "name": "Alito", "place": "village", "source": "GNS"}}, {"type": "Feature", "geometry": {"type": "Point", "coordinates": [31.370364, 2.939543]}, "properties": {"GNS:dsg_code": "PPL", "GNS:dsg_string": "populated place", "GNS:id": "11330170", "fixme": "no population estimate available, defaulted to village", "is_in:country": "Uganda", "name": "Alivu", "place": "village", "source": "GNS"}}, {"type": "Feature", "geometry": {"type": "Point", "coordinates": [31.001472, 2.995412]}, "properties": {"GNS:dsg_code": "PPL", "GNS:dsg_string": "populated place", "GNS:id": "11330238", "fixme": "no population estimate available, defaulted to village", "is_in:country": "Uganda", "name": "Alivu", "place": "village", "source": "GNS"}}, {"type": "Feature", "geometry": {"type": "Point", "coordinates": [30.9151904, 3.1653023]}, "properties": {"GNS:dsg_code": "PPL", "GNS:dsg_string": "populated place", "GNS:id": "-1726010", "fixme": "no population estimate available, defaulted to village", "is_in:country": "Uganda", "name": "Alivu", "place": "village", "source": "GNS"}}, {"type": "Feature", "geometry": {"type": "Point", "coordinates": [31.145592, 2.521643]}, "properties": {"GNS:dsg_code": "PPL", "GNS:dsg_string": "populated place", "GNS:id": "11329941", "fixme": "no population estimate available, defaulted to village", "name": "Allgkra", "place": "village", "source": "GNS"}}, {"type": "Feature", "geometry": {"type": "Point", "coordinates": [33.177778, 2.252778]}, "properties": {"GNS:dsg_code": "PPL", "GNS:dsg_string": "populated place", "GNS:id": "-1726017", "fixme": "no population estimate available, defaulted to village", "name": "Aloi", "place": "village", "source": "GNS", "wikidata": "Q4734205", "wikipedia": "en:Aloi"}}, {"type": "Feature", "geometry": {"type": "Point", "coordinates": [31.960522, 2.594243]}, "properties": {"GNS:dsg_code": "PPL", "GNS:dsg_string": "populated place", "GNS:id": "11330524", "fixme": "no population estimate available, defaulted to village", "name": "Alokolum", "place": "village", "source": "GNS"}}, {"type": "Feature", "geometry": {"type": "Point", "coordinates": [32.226651, 2.75757]}, "properties": {"GNS:dsg_code": "PPL", "GNS:dsg_string": "populated place", "GNS:id": "11400800", "fixme": "no population estimate available, defaulted to village", "name": "Alokolum", "place": "village", "source": "GNS", "wikidata": "Q17155793"}}, {"type": "Feature", "geometry": {"type": "Point", "coordinates": [30.851963, 2.661039]}, "properties": {"GNS:dsg_code": "PPL", "GNS:dsg_string": "populated place", "GNS:id": "-1726025", "fixme": "no population estimate available, defaulted to village", "name": "Alube", "place": "village", "source": "GNS"}}, {"type": "Feature", "geometry": {"type": "Point", "coordinates": [31.078877, 2.909811]}, "properties": {"GNS:dsg_code": "PPL", "GNS:dsg_string": "populated place", "GNS:id": "11329642", "fixme": "no population estimate available, defaulted to village", "is_in:country": "Uganda", "name": "Alui", "place": "village", "source": "GNS"}}, {"type": "Feature", "geometry": {"type": "Point", "coordinates": [31.213262, 2.576156]}, "properties": {"GNS:dsg_code": "PPL", "GNS:dsg_string": "populated place", "GNS:id": "11329861", "fixme": "no population estimate available, defaulted to village", "name": "Aluka", "place": "village", "source": "GNS"}}, {"type": "Feature", "geometry": {"type": "Point", "coordinates": [31.138207, 2.539528]}, "properties": {"GNS:dsg_code": "PPL", "GNS:dsg_string": "populated place", "GNS:id": "11329947", "fixme": "no population estimate available, defaulted to village", "name": "Alwala", "place": "village", "source": "GNS"}}, {"type": "Feature", "geometry": {"type": "Point", "coordinates": [33.4668382, 2.9839093]}, "properties": {"GNS:dsg_code": "PPL", "GNS:dsg_string": "populated place", "GNS:id": "-1726032", "fixme": "no population estimate available, defaulted to village", "is_in:country": "Uganda", "name": "Alwala", "place": "village", "source": "GNS"}}, {"type": "Feature", "geometry": {"type": "Point", "coordinates": [31.362623, 2.461802]}, "properties": {"GNS:dsg_code": "PPL", "GNS:dsg_string": "populated place", "GNS:id": "-1726035", "fixme": "no population estimate available, defaulted to village", "name": "Alwi", "place": "village", "source": "GNS"}}, {"type": "Feature", "geometry": {"type": "Point", "coordinates": [31.346249, 2.5283]}, "properties": {"GNS:dsg_code": "PPL", "GNS:dsg_string": "populated place", "GNS:id": "11329757", "fixme": "no population estimate available, defaulted to village", "name": "Alwi", "place": "village", "source": "GNS"}}, {"type": "Feature", "geometry": {"type": "Point", "coordinates": [31.1000889, 2.3969494]}, "properties": {"GNS:dsg_code": "PPL", "GNS:dsg_string": "populated place", "GNS:id": "11327209", "fixme": "no population estimate available, defaulted to village", "name": "Amanga", "place": "village", "source": "GNS"}}, {"type": "Feature", "geometry": {"type": "Point", "coordinates": [31.182219, 3.465917]}, "properties": {"GNS:dsg_code": "PPL", "GNS:dsg_string": "populated place", "GNS:id": "11326034", "fixme": "no population estimate available, defaulted to village", "is_in:country": "Uganda", "name": "Ambayo", "place": "village", "source": "GNS"}}, {"type": "Feature", "geometry": {"type": "Point", "coordinates": [30.9620423, 3.1746569]}, "properties": {"GNS:dsg_code": "PPL", "GNS:dsg_string": "populated place", "GNS:id": "-1726047", "name": "Ambidro", "place": "village", "source": "GNS"}}, {"type": "Feature", "geometry": {"type": "Point", "coordinates": [33.45, 2.966667]}, "properties": {"GNS:dsg_code": "PPL", "GNS:dsg_string": "populated place", "GNS:id": "-1726056", "fixme": "no population estimate available, defaulted to village", "is_in:country": "Uganda", "name": "Amiel", "place": "village", "source": "GNS"}}, {"type": "Feature", "geometry": {"type": "Point", "coordinates": [32.391997, 2.372255]}, "properties": {"GNS:dsg_code": "PPL", "GNS:dsg_string": "populated place", "GNS:id": "11397427", "fixme": "no population estimate available, defaulted to village", "name": "Aminomir", "place": "village", "source": "GNS"}}, {"type": "Feature", "geometry": {"type": "Point", "coordinates": [31.492045, 2.481807]}, "properties": {"GNS:dsg_code": "PPL", "GNS:dsg_string": "populated place", "GNS:id": "11327353", "fixme": "no population estimate available, defaulted to village", "name": "Amor", "place": "village", "source": "GNS"}}, {"type": "Feature", "geometry": {"type": "Point", "coordinates": [31.263071, 3.002179]}, "properties": {"GNS:dsg_code": "PPL", "GNS:dsg_string": "populated place", "GNS:id": "11326250", "fixme": "no population estimate available, defaulted to village", "is_in:country": "Uganda", "name": "Ampi", "place": "village", "source": "GNS"}}, {"type": "Feature", "geometry": {"type": "Point", "coordinates": [31.800393, 3.633578]}, "properties": {"GNS:dsg_code": "PPL", "GNS:dsg_string": "populated place", "GNS:id": "-1726084", "fixme": "no population estimate available, defaulted to village", "name": "Amua", "place": "village", "source": "GNS"}}, {"type": "Feature", "geometry": {"type": "Point", "coordinates": [32.385067, 2.323961]}, "properties": {"GNS:dsg_code": "PPL", "GNS:dsg_string": "populated place", "GNS:id": "-1734575", "fixme": "no population estimate available, defaulted to village", "name": "Amwa", "place": "village", "source": "GNS"}}, {"type": "Feature", "geometry": {"type": "Point", "coordinates": [31.9472678, 2.5988654]}, "properties": {"GNS:dsg_code": "PPL", "GNS:dsg_string": "populated place", "GNS:id": "-1726101", "fixme": "no population estimate available, defaulted to village", "name": "Anaka", "place": "town", "source": "GNS", "wikidata": "Q4750961", "wikipedia": "en:Anaka"}}, {"type": "Feature", "geometry": {"type": "Point", "coordinates": [31.222562, 2.247316]}, "properties": {"GNS:dsg_code": "PPL", "GNS:dsg_string": "populated place", "GNS:id": "-1726106", "fixme": "no population estimate available, defaulted to village", "name": "Angaba", "place": "village", "source": "GNS"}}, {"type": "Feature", "geometry": {"type": "Point", "coordinates": [31.1449266, 2.2882816]}, "properties": {"GNS:dsg_code": "PPL", "GNS:dsg_string": "populated place", "GNS:id": "11326960", "fixme": "no population estimate available, defaulted to village", "name": "Angaba", "place": "village", "source": "GNS"}}, {"type": "Feature", "geometry": {"type": "Point", "coordinates": [31.196062, 2.406963]}, "properties": {"GNS:dsg_code": "PPL", "GNS:dsg_string": "populated place", "GNS:id": "-1726107", "fixme": "no population estimate available, defaulted to village", "name": "Angal", "place": "village", "source": "GNS"}}, {"type": "Feature", "geometry": {"type": "Point", "coordinates": [31.1983149, 2.4543717]}, "properties": {"GNS:dsg_code": "PPL", "GNS:dsg_string": "populated place", "GNS:id": "11326959", "fixme": "no population estimate available, defaulted to village", "name": "Angal", "place": "village", "source": "GNS"}}, {"type": "Feature", "geometry": {"type": "Point", "coordinates": [32.398287, 2.853422]}, "properties": {"GNS:dsg_code": "PPL", "GNS:dsg_string": "populated place", "GNS:id": "11401152", "fixme": "no population estimate available, defaulted to village", "is_in:country": "Uganda", "name": "Angaya", "place": "village", "source": "GNS"}}, {"type": "Feature", "geometry": {"type": "Point", "coordinates": [31.885717, 3.43248]}, "properties": {"GNS:dsg_code": "PPL", "GNS:dsg_string": "populated place", "GNS:id": "11328206", "fixme": "no population estimate available, defaulted to village", "name": "Angwarapi", "place": "village", "source": "GNS"}}, {"type": "Feature", "geometry": {"type": "Point", "coordinates": [31.038448, 2.555194]}, "properties": {"GNS:dsg_code": "PPL", "GNS:dsg_string": "populated place", "GNS:id": "11330046", "fixme": "no population estimate available, defaulted to village", "name": "Anibu", "place": "village", "source": "GNS"}}, {"type": "Feature", "geometry": {"type": "Point", "coordinates": [31.31484, 2.995004]}, "properties": {"GNS:dsg_code": "PPL", "GNS:dsg_string": "populated place", "GNS:id": "11330158", "fixme": "no population estimate available, defaulted to village", "is_in:country": "Uganda", "name": "Anipi", "place": "village", "source": "GNS"}}, {"type": "Feature", "geometry": {"type": "Point", "coordinates": [31.065014, 2.733676]}, "properties": {"GNS:dsg_code": "PPL", "GNS:dsg_string": "populated place", "GNS:id": "-1726130", "fixme": "no population estimate available, defaulted to village", "name": "Anya", "place": "village", "source": "GNS"}}, {"type": "Feature", "geometry": {"type": "Point", "coordinates": [31.2153557, 2.3415054]}, "properties": {"GNS:dsg_code": "PPL", "GNS:dsg_string": "populated place", "GNS:id": "11327084", "fixme": "no population estimate available, defaulted to village", "name": "Anyang", "place": "village", "source": "GNS"}}, {"type": "Feature", "geometry": {"type": "Point", "coordinates": [30.861007, 2.677842]},